[
  {
    "model": "clinicfinder.location",
    "fields":{
    "address": "160 Bell Street, Weenen",
    "code": 269315,
    "latitude": -28.8544,
    "location": "POINT (30.092926 -28.854454)",
    "longitude": 30.092926,
    "name": "kz AE Haviland Memorial Clinic",
    "province": "KwaZulu-Natal",
    "short_name": "AE Haviland Clinic"
   }
  },
  {
    "model": "clinicfinder.location",
    "fields":{
    "address": "92 Centenary Road, Acaciavale, Ladysmith",
    "code": 439351,
    "latitude": -28.5868,
    "location": "POINT (29.79619 -28.586827)",
    "longitude": 29.79619,
    "name": "kz Acaciavale Clinic",
    "province": "KwaZulu-Natal",
    "short_name": "Acaciavale Clinic"
   }
  },
  {
    "model": "clinicfinder.location",
    "fields":{
    "address": "Sheleni Road, Adams Mission",
    "code": 425360,
    "latitude": -30.0287,
    "location": "POINT (30.823073 -30.028711)",
    "longitude": 30.823073,
    "name": "kz Adams Mission Clinic",
    "province": "KwaZulu-Natal",
    "short_name": "Adams Mission Clinic"
   }
  },
  {
    "model": "clinicfinder.location",
    "fields":{
    "address": "Erskine Terrace, South Beach, Durban, 4001",
    "code": 464851,
    "latitude": -29.860500000000002,
    "location": "POINT (31.040239 -29.860585)",
    "longitude": 31.040239,
    "name": "kz Addington Gateway Clinic",
    "province": "KwaZulu-Natal",
    "short_name": "Addington Gateway"
   }
  },
  {
    "model": "clinicfinder.location",
    "fields":{
    "address": "Altona Area",
    "code": 285715,
    "latitude": -27.3812,
    "location": "POINT (31.212396 -27.381204)",
    "longitude": 31.212396,
    "name": "kz Altona Clinic",
    "province": "KwaZulu-Natal",
    "short_name": "Altona Clinic"
   }
  },
  {
    "model": "clinicfinder.location",
    "fields":{
    "address": "Amakhabela Area",
    "code": 537615,
    "latitude": -28.8542,
    "location": "POINT (30.859312 -28.854213)",
    "longitude": 30.859312,
    "name": "kz Amakhabela Clinic",
    "province": "KwaZulu-Natal",
    "short_name": "Amakhabela Clinic"
   }
  },
  {
    "model": "clinicfinder.location",
    "fields":{
    "address": "Next to Mandlalathi Store",
    "code": 671415,
    "latitude": -28.8749,
    "location": "POINT (30.98654 -28.87495)",
    "longitude": 30.98654,
    "name": "kz Amandlalathi Clinic",
    "province": "KwaZulu-Natal",
    "short_name": "Amandlalathi Clinic"
   }
  },
  {
    "model": "clinicfinder.location",
    "fields":{
    "address": "3 Ross Street, Amanzimtoti, 4126",
    "code": 156433,
    "latitude": -30.0544,
    "location": "POINT (30.880304 -30.054431)",
    "longitude": 30.880304,
    "name": "kz Amanzimtoti Clinic",
    "province": "KwaZulu-Natal",
    "short_name": "Amanzimtoti Clinic"
   }
  },
  {
    "model": "clinicfinder.location",
    "fields":{
    "address": "Off D787, Road 108757, Amaoti",
    "code": 182033,
    "latitude": -29.688,
    "location": "POINT (30.97942 -29.688044)",
    "longitude": 30.97942,
    "name": "kz Amaoti Clinic",
    "province": "KwaZulu-Natal",
    "short_name": "Amaoti Clinic"
   }
  },
  {
    "model": "clinicfinder.location",
    "fields":{
    "address": "Amatimatolo Area",
    "code": 228751,
    "latitude": -29.1394,
    "location": "POINT (30.82384 -29.139429)",
    "longitude": 30.82384,
    "name": "kz Amatimatolo Clinic",
    "province": "KwaZulu-Natal",
    "short_name": "Amatimatolo Clinic"
   }
  },
  {
    "model": "clinicfinder.location",
    "fields":{
    "address": "Amazizi Area",
    "code": 483951,
    "latitude": -28.6798,
    "location": "POINT (29.042136 -28.679826)",
    "longitude": 29.042136,
    "name": "kz Amazizi Clinic",
    "province": "KwaZulu-Natal",
    "short_name": "Amazizi Clinic"
   }
  },
  {
    "model": "clinicfinder.location",
    "fields":{
    "address": "R44 Noorsberg Street",
    "code": 673624,
    "latitude": -29.3898,
    "location": "POINT (30.842696 -29.38985)",
    "longitude": 30.842696,
    "name": "kz Appelsbosch Gateway Clinic",
    "province": "KwaZulu-Natal",
    "short_name": "Appelsbosch Gateway"
   }
  },
  {
    "model": "clinicfinder.location",
    "fields":{
    "address": "83 Msimang Road",
    "code": 555660,
    "latitude": -29.6399,
    "location": "POINT (30.331869 -29.639975)",
    "longitude": 30.331869,
    "name": "kz Ashdown Clinic",
    "province": "KwaZulu-Natal",
    "short_name": "Ashdown Clinic"
   }
  },
  {
    "model": "clinicfinder.location",
    "fields":{
    "address": null,
    "code": 967742,
    "latitude": -30.6064,
    "location": "POINT (30.34957 -30.606454)",
    "longitude": 30.34957,
    "name": "kz Assisi Clinic",
    "province": "KwaZulu-Natal",
    "short_name": "Assisi Clinic"
   }
  },
  {
    "model": "clinicfinder.location",
    "fields":{
    "address": "4 Warner Road, Athlone Park, 4110",
    "code": 558342,
    "latitude": -30.0179,
    "location": "POINT (30.919769 -30.017932)",
    "longitude": 30.919769,
    "name": "kz Athlone Park Hall Clinic",
    "province": "KwaZulu-Natal",
    "short_name": "Athlone Park Hall Clinic"
   }
  },
  {
    "model": "clinicfinder.location",
    "fields":{
    "address": "9 Clinic Road, Austerville, 4052",
    "code": 247033,
    "latitude": -29.9403,
    "location": "POINT (30.98339 -29.940356)",
    "longitude": 30.98339,
    "name": "kz Austerville Clinic",
    "province": "KwaZulu-Natal",
    "short_name": "Austerville Clinic"
   }
  },
  {
    "model": "clinicfinder.location",
    "fields":{
    "address": "Azalea Sport Complex",
    "code": 458460,
    "latitude": -29.6893,
    "location": "POINT (30.318651 -29.689317)",
    "longitude": 30.318651,
    "name": "kz Azalea Clinic",
    "province": "KwaZulu-Natal",
    "short_name": "Azalea Clinic"
   }
  },
  {
    "model": "clinicfinder.location",
    "fields":{
    "address": "R103 Old Main Road, Balgowan Village",
    "code": 303924,
    "latitude": -29.3963,
    "location": "POINT (30.052843 -29.396327)",
    "longitude": 30.052843,
    "name": "kz Balgowan Clinic",
    "province": "KwaZulu-Natal",
    "short_name": "Balgowan Clinic"
   }
  },
  {
    "model": "clinicfinder.location",
    "fields":{
    "address": "10 Leonora Drive, Ballito",
    "code": 778215,
    "latitude": -29.5257,
    "location": "POINT (31.20673 -29.52572)",
    "longitude": 31.20673,
    "name": "kz Ballito Clinic",
    "province": "KwaZulu-Natal",
    "short_name": "Ballito Clinic"
   }
  },
  {
    "model": "clinicfinder.location",
    "fields":{
    "address": "Bambanani Area",
    "code": 352624,
    "latitude": -29.2696,
    "location": "POINT (30.847601 -29.269638)",
    "longitude": 30.847601,
    "name": "kz Bambanani Clinic",
    "province": "KwaZulu-Natal",
    "short_name": "Bambanani Clinic"
   }
  },
  {
    "model": "clinicfinder.location",
    "fields":{
    "address": "Baniyena Area",
    "code": 910415,
    "latitude": -30.1187,
    "location": "POINT (30.58766 -30.118716)",
    "longitude": 30.58766,
    "name": "kz Baniyena Clinic",
    "province": "KwaZulu-Natal",
    "short_name": "Baniyena Clinic"
   }
  },
  {
    "model": "clinicfinder.location",
    "fields":{
    "address": "Mswilili Ward 13, Baphumile",
    "code": 443442,
    "latitude": -30.5529,
    "location": "POINT (30.354423 -30.552922)",
    "longitude": 30.354423,
    "name": "kz Baphumile Clinic",
    "province": "KwaZulu-Natal",
    "short_name": "Baphumile Clinic"
   }
  },
  {
    "model": "clinicfinder.location",
    "fields":{
    "address": "Bayberry Grove, Bayview, Chatsworth",
    "code": 266524,
    "latitude": -29.9224,
    "location": "POINT (30.912703 -29.922425)",
    "longitude": 30.912703,
    "name": "kz Bayview Clinic",
    "province": "KwaZulu-Natal",
    "short_name": "Bayview Clinic"
   }
  },
  {
    "model": "clinicfinder.location",
    "fields":{
    "address": "23 Beatrice Street",
    "code": 452151,
    "latitude": -29.8517,
    "location": "POINT (31.017979 -29.851704)",
    "longitude": 31.017979,
    "name": "kz Beatrice Street Clinic",
    "province": "KwaZulu-Natal",
    "short_name": "Beatrice Str Clinic"
   }
  },
  {
    "model": "clinicfinder.location",
    "fields":{
    "address": null,
    "code": 847933,
    "latitude": -27.645,
    "location": "POINT (31.667 -27.645)",
    "longitude": 31.667,
    "name": "kz Belgrade Clinic",
    "province": "KwaZulu-Natal",
    "short_name": "Belgrade Clinic"
   }
  },
  {
    "model": "clinicfinder.location",
    "fields":{
    "address": null,
    "code": 544415,
    "latitude": -27.8925,
    "location": "POINT (31.639694 -27.892556)",
    "longitude": 31.639694,
    "name": "kz Benedictine Gateway Clinic",
    "province": "KwaZulu-Natal",
    "short_name": "Benedictine Gateway Clinic"
   }
  },
  {
    "model": "clinicfinder.location",
    "fields":{
    "address": "101 Broadway Street, Bergville",
    "code": 349451,
    "latitude": -28.73,
    "location": "POINT (29.349583 -28.730019)",
    "longitude": 29.349583,
    "name": "kz Bergville Clinic",
    "province": "KwaZulu-Natal",
    "short_name": "Bergville Clinic"
   }
  },
  {
    "model": "clinicfinder.location",
    "fields":{
    "address": "Area 3, Vezi Road, Ntuzuma",
    "code": 762042,
    "latitude": -29.7275,
    "location": "POINT (30.985201 -29.727542)",
    "longitude": 30.985201,
    "name": "kz Besters Clinic",
    "province": "KwaZulu-Natal",
    "short_name": "Besters Clinic"
   }
  },
  {
    "model": "clinicfinder.location",
    "fields":{
    "address": "Main Road, Bethesda",
    "code": 429242,
    "latitude": -27.5744,
    "location": "POINT (32.081128 -27.574446)",
    "longitude": 32.081128,
    "name": "kz Bethesda Gateway Clinic",
    "province": "KwaZulu-Natal",
    "short_name": "Bethesda Gateway"
   }
  },
  {
    "model": "clinicfinder.location",
    "fields":{
    "address": null,
    "code": 576560,
    "latitude": -26.9438,
    "location": "POINT (32.336943 -26.943821)",
    "longitude": 32.336943,
    "name": "kz Bhekabantu Clinic",
    "province": "KwaZulu-Natal",
    "short_name": "Bhekabantu Clinic"
   }
  },
  {
    "model": "clinicfinder.location",
    "fields":{
    "address": "Bhekumthetho Area",
    "code": 759724,
    "latitude": -27.9731,
    "location": "POINT (30.737981 -27.973163)",
    "longitude": 30.737981,
    "name": "kz Bhekumthetho Clinic",
    "province": "KwaZulu-Natal",
    "short_name": "Bhekumthetho Clinic"
   }
  },
  {
    "model": "clinicfinder.location",
    "fields":{
    "address": "2625 Gama Avenue",
    "code": 623015,
    "latitude": -27.7765,
    "location": "POINT (30.821912 -27.776558)",
    "longitude": 30.821912,
    "name": "kz Bhekuzulu Clinic",
    "province": "KwaZulu-Natal",
    "short_name": "Bhekezulu Clinic"
   }
  },
  {
    "model": "clinicfinder.location",
    "fields":{
    "address": "Mganka Area",
    "code": 723315,
    "latitude": -30.7412,
    "location": "POINT (30.385684 -30.741269)",
    "longitude": 30.385684,
    "name": "kz Bhobhoyi Clinic",
    "province": "KwaZulu-Natal",
    "short_name": "Bhobhoyi Clinic"
   }
  },
  {
    "model": "clinicfinder.location",
    "fields":{
    "address": "Paddock Road",
    "code": 989042,
    "latitude": -30.7686,
    "location": "POINT (30.339125 -30.768624)",
    "longitude": 30.339125,
    "name": "kz Bhomela Clinic",
    "province": "KwaZulu-Natal",
    "short_name": "Bhomela Clinic"
   }
  },
  {
    "model": "clinicfinder.location",
    "fields":{
    "address": "1302 Bluff Road",
    "code": 440224,
    "latitude": -29.9004,
    "location": "POINT (31.025943 -29.900405)",
    "longitude": 31.025943,
    "name": "kz Bluff Clinic",
    "province": "KwaZulu-Natal",
    "short_name": "Bluff Clinic"
   }
  },
  {
    "model": "clinicfinder.location",
    "fields":{
    "address": null,
    "code": 663542,
    "latitude": -28.7495,
    "location": "POINT (32.052861 -28.74956)",
    "longitude": 32.052861,
    "name": "kz Brackenham Clinic",
    "province": "KwaZulu-Natal",
    "short_name": "Brackenham Clinic"
   }
  },
  {
    "model": "clinicfinder.location",
    "fields":{
    "address": "Izingolweni Road, Kwanzimakwe",
    "code": 755851,
    "latitude": -30.9695,
    "location": "POINT (30.18555 -30.96956)",
    "longitude": 30.18555,
    "name": "kz Braemer Clinic",
    "province": "KwaZulu-Natal",
    "short_name": "Braemer Clinic"
   }
  },
  {
    "model": "clinicfinder.location",
    "fields":{
    "address": "Old Main Road",
    "code": 368815,
    "latitude": -29.2148,
    "location": "POINT (30.010967 -29.214882)",
    "longitude": 30.010967,
    "name": "kz Bruntville CHC",
    "province": "KwaZulu-Natal",
    "short_name": "Bruntville CHC"
   }
  },
  {
    "model": "clinicfinder.location",
    "fields":{
    "address": "Main Road, Buchanana Obuka Reserve",
    "code": 225215,
    "latitude": -28.5923,
    "location": "POINT (31.7595 -28.59237)",
    "longitude": 31.7595,
    "name": "kz Buchanana Clinic",
    "province": "KwaZulu-Natal",
    "short_name": "Buchanana Clinic"
   }
  },
  {
    "model": "clinicfinder.location",
    "fields":{
    "address": "Busingatha Area",
    "code": 167742,
    "latitude": -28.7064,
    "location": "POINT (28.998065 -28.706476)",
    "longitude": 28.998065,
    "name": "kz Busingatha Clinic",
    "province": "KwaZulu-Natal",
    "short_name": "Busingatha Clinic"
   }
  },
  {
    "model": "clinicfinder.location",
    "fields":{
    "address": "R618 Buxedene",
    "code": 157851,
    "latitude": -28.0043,
    "location": "POINT (31.851083 -28.00432)",
    "longitude": 31.851083,
    "name": "kz Buxedene Clinic",
    "province": "KwaZulu-Natal",
    "short_name": "Buxedene Clinic"
   }
  },
  {
    "model": "clinicfinder.location",
    "fields":{
    "address": "490620 Caluza Road",
    "code": 383760,
    "latitude": -29.6454,
    "location": "POINT (30.311432 -29.645485)",
    "longitude": 30.311432,
    "name": "kz Caluza Clinic",
    "province": "KwaZulu-Natal",
    "short_name": "Caluza Clinic"
   }
  },
  {
    "model": "clinicfinder.location",
    "fields":{
    "address": "175 Dr Canehaven Road, Unit 21, Phoenix",
    "code": 625224,
    "latitude": -29.6863,
    "location": "POINT (31.016838 -29.686393)",
    "longitude": 31.016838,
    "name": "kz Caneside Clinic",
    "province": "KwaZulu-Natal",
    "short_name": "Caneside Clinic"
   }
  },
  {
    "model": "clinicfinder.location",
    "fields":{
    "address": "25 Kaledon Road",
    "code": 360342,
    "latitude": -29.8684,
    "location": "POINT (30.96204 -29.86845)",
    "longitude": 30.962040000000002,
    "name": "kz Cato Manor CHC",
    "province": "KwaZulu-Natal",
    "short_name": "Cato Manor CHC"
   }
  },
  {
    "model": "clinicfinder.location",
    "fields":{
    "address": "305 Jabu Ndlovu Street",
    "code": 710142,
    "latitude": -29.6018,
    "location": "POINT (30.383213 -29.601809)",
    "longitude": 30.383213,
    "name": "kz Central City Clinic",
    "province": "KwaZulu-Natal",
    "short_name": "Central City Clinic"
   }
  },
  {
    "model": "clinicfinder.location",
    "fields":{
    "address": "Ceza Main Road, Chibini Area",
    "code": 298442,
    "latitude": -27.996,
    "location": "POINT (31.377188 -27.996074)",
    "longitude": 31.377188,
    "name": "kz Ceza Gateway Clinic",
    "province": "KwaZulu-Natal",
    "short_name": "Ceza Gateway"
   }
  },
  {
    "model": "clinicfinder.location",
    "fields":{
    "address": "Malama Street",
    "code": 171615,
    "latitude": -28.2175,
    "location": "POINT (30.67332 -28.217572)",
    "longitude": 30.67332,
    "name": "kz Charles Johnson Memorial Gateway Clinic",
    "province": "KwaZulu-Natal",
    "short_name": "C Johnson Mem Gateway"
   }
  },
  {
    "model": "clinicfinder.location",
    "fields":{
    "address": "491 Church Street",
    "code": 797815,
    "latitude": -27.4171,
    "location": "POINT (29.86634 -27.41714)",
    "longitude": 29.86634,
    "name": "kz Charlestown Clinic",
    "province": "KwaZulu-Natal",
    "short_name": "Charlestown Clinic"
   }
  },
  {
    "model": "clinicfinder.location",
    "fields":{
    "address": "6 Main Street, Arena Park",
    "code": 162215,
    "latitude": -29.9109,
    "location": "POINT (30.879527 -29.910944)",
    "longitude": 30.879527,
    "name": "kz Chatsworth Township Centre Clinic",
    "province": "KwaZulu-Natal",
    "short_name": "Chatsworth Centre Clinic"
   }
  },
  {
    "model": "clinicfinder.location",
    "fields":{
    "address": "3 Ngwenya Road, Chesterville",
    "code": 522624,
    "latitude": -29.8559,
    "location": "POINT (30.949791 -29.855914)",
    "longitude": 30.949791,
    "name": "kz Chesterville Clinic",
    "province": "KwaZulu-Natal",
    "short_name": "Chesterville Clinic"
   }
  },
  {
    "model": "clinicfinder.location",
    "fields":{
    "address": "Chibini Road",
    "code": 238706,
    "latitude": -29.2719,
    "location": "POINT (30.93239 -29.27196)",
    "longitude": 30.93239,
    "name": "kz Chibini Clinic",
    "province": "KwaZulu-Natal",
    "short_name": "Chibini Clinic"
   }
  },
  {
    "model": "clinicfinder.location",
    "fields":{
    "address": "Pieterhouf Drive",
    "code": 623960,
    "latitude": -30.1626,
    "location": "POINT (30.0786 -30.16269)",
    "longitude": 30.0786,
    "name": "kz Christ the King Gateway Clinic",
    "province": "KwaZulu-Natal",
    "short_name": "Christ the King Gateway"
   }
  },
  {
    "model": "clinicfinder.location",
    "fields":{
    "address": "R33 Dundee Road",
    "code": 526215,
    "latitude": -28.7466,
    "location": "POINT (30.450091 -28.746672)",
    "longitude": 30.450091,
    "name": "kz Church of Scotland Gateway Clinic",
    "province": "KwaZulu-Natal",
    "short_name": "Church Scot Gateway"
   }
  },
  {
    "model": "clinicfinder.location",
    "fields":{
    "address": "Chwezi Area",
    "code": 492651,
    "latitude": -28.4475,
    "location": "POINT (30.989913 -28.44757)",
    "longitude": 30.989913,
    "name": "kz Chwezi Clinic",
    "province": "KwaZulu-Natal",
    "short_name": "Chwezi Clinic"
   }
  },
  {
    "model": "clinicfinder.location",
    "fields":{
    "address": "Kwamthethwa, Enhlabosini",
    "code": 160424,
    "latitude": -28.4775,
    "location": "POINT (32.115395 -28.477598)",
    "longitude": 32.115395,
    "name": "kz Cinci Clinic",
    "province": "KwaZulu-Natal",
    "short_name": "Cinci Clinic"
   }
  },
  {
    "model": "clinicfinder.location",
    "fields":{
    "address": "Cnr Clare and Goldman Road, Clare Estates",
    "code": 344533,
    "latitude": -29.8209,
    "location": "POINT (30.974284 -29.820962)",
    "longitude": 30.974284,
    "name": "kz Clare Estate Clinic",
    "province": "KwaZulu-Natal",
    "short_name": "Clare Estate Clinic"
   }
  },
  {
    "model": "clinicfinder.location",
    "fields":{
    "address": "1106 12th Street",
    "code": 938824,
    "latitude": -29.795,
    "location": "POINT (30.893303 -29.795062)",
    "longitude": 30.893303,
    "name": "kz Clermont Clinic",
    "province": "KwaZulu-Natal",
    "short_name": "Clermont Clinic"
   }
  },
  {
    "model": "clinicfinder.location",
    "fields":{
    "address": "Gxobanyawo Area",
    "code": 182842,
    "latitude": -28.6821,
    "location": "POINT (30.522301 -28.6821)",
    "longitude": 30.522301,
    "name": "kz Collessie Clinic",
    "province": "KwaZulu-Natal",
    "short_name": "Collessie Clinic"
   }
  },
  {
    "model": "clinicfinder.location",
    "fields":{
    "address": "Commercial Road",
    "code": 349142,
    "latitude": -29.9519,
    "location": "POINT (30.88575 -29.95199)",
    "longitude": 30.88575,
    "name": "kz Commercial City Family Planning Clinic",
    "province": "KwaZulu-Natal",
    "short_name": "Commercial City FP Clinic"
   }
  },
  {
    "model": "clinicfinder.location",
    "fields":{
    "address": "45 Conner Street, Estcourt",
    "code": 544624,
    "latitude": -29.0098,
    "location": "POINT (29.875241 -29.009814)",
    "longitude": 29.875241,
    "name": "kz Connor Street Clinic",
    "province": "KwaZulu-Natal",
    "short_name": "Connor Street Clinic"
   }
  },
  {
    "model": "clinicfinder.location",
    "fields":{
    "address": "Ezithendeni Cornfields",
    "code": 358342,
    "latitude": -28.8625,
    "location": "POINT (29.863512 -28.862561)",
    "longitude": 29.863512,
    "name": "kz Cornfields Clinic",
    "province": "KwaZulu-Natal",
    "short_name": "Cornfields Clinic"
   }
  },
  {
    "model": "clinicfinder.location",
    "fields":{
    "address": "1 Civic Road",
    "code": 538651,
    "latitude": -30.1997,
    "location": "POINT (30.75369 -30.199701)",
    "longitude": 30.75369,
    "name": "kz Craigieburn Clinic",
    "province": "KwaZulu-Natal",
    "short_name": "Craigieburn Clinic"
   }
  },
  {
    "model": "clinicfinder.location",
    "fields":{
    "address": "Off Greytown Road, next To Cramond Supermarket",
    "code": 285651,
    "latitude": -29.4157,
    "location": "POINT (30.429371 -29.415763)",
    "longitude": 30.429371,
    "name": "kz Cramond Clinic",
    "province": "KwaZulu-Natal",
    "short_name": "Cramond Clinic"
   }
  },
  {
    "model": "clinicfinder.location",
    "fields":{
    "address": "Dundee Road Tugela Ferry Msinga Rural, Tugela Ferry, 3010",
    "code": 396824,
    "latitude": -28.6577,
    "location": "POINT (30.46397 -28.657771)",
    "longitude": 30.46397,
    "name": "kz Cwaka Clinic",
    "province": "KwaZulu-Natal",
    "short_name": "Cwaka Clinic"
   }
  },
  {
    "model": "clinicfinder.location",
    "fields":{
    "address": "R102 Old Main Road",
    "code": 673133,
    "latitude": -30.1717,
    "location": "POINT (30.816965 -30.17172)",
    "longitude": 30.816965,
    "name": "kz Danganya Clinic",
    "province": "KwaZulu-Natal",
    "short_name": "Danganya Clinic"
   }
  },
  {
    "model": "clinicfinder.location",
    "fields":{
    "address": null,
    "code": 367124,
    "latitude": -28.0135,
    "location": "POINT (30.057398 -28.013526)",
    "longitude": 30.057398,
    "name": "kz Dannhauser CHC",
    "province": "KwaZulu-Natal",
    "short_name": "Dannhauser CHC"
   }
  },
  {
    "model": "clinicfinder.location",
    "fields":{
    "address": "Soweto Township, Darnal",
    "code": 291424,
    "latitude": -29.2653,
    "location": "POINT (31.36428 -29.26538)",
    "longitude": 31.36428,
    "name": "kz Darnall Clinic",
    "province": "KwaZulu-Natal",
    "short_name": "Darnall Clinic"
   }
  },
  {
    "model": "clinicfinder.location",
    "fields":{
    "address": "Dengeni Area",
    "code": 626142,
    "latitude": -28.0016,
    "location": "POINT (31.782131 -28.001682)",
    "longitude": 31.782131,
    "name": "kz Dengeni Clinic",
    "province": "KwaZulu-Natal",
    "short_name": "Dengeni Clinic"
   }
  },
  {
    "model": "clinicfinder.location",
    "fields":{
    "address": "Dinintuli Area",
    "code": 678733,
    "latitude": -28.7033,
    "location": "POINT (30.673 -28.703361)",
    "longitude": 30.673000000000002,
    "name": "kz Dinintuli Clinic",
    "province": "KwaZulu-Natal",
    "short_name": "Dinintuli Clinic"
   }
  },
  {
    "model": "clinicfinder.location",
    "fields":{
    "address": "Scottburgh, Scottburgh/Umzinto North, 4180",
    "code": 351515,
    "latitude": -30.1794,
    "location": "POINT (30.677668 -30.179472)",
    "longitude": 30.677668,
    "name": "kz Dlangezwa Clinic",
    "province": "KwaZulu-Natal",
    "short_name": "Dlangezwa Clinic"
   }
  },
  {
    "model": "clinicfinder.location",
    "fields":{
    "address": null,
    "code": 436324,
    "latitude": -29.0728,
    "location": "POINT (31.62387 -29.07289)",
    "longitude": 31.62387,
    "name": "kz Dokodweni Clinic",
    "province": "KwaZulu-Natal",
    "short_name": "Dokodweni Clinic"
   }
  },
  {
    "model": "clinicfinder.location",
    "fields":{
    "address": "Kwamhlana Tribal Area",
    "code": 790624,
    "latitude": -28.5439,
    "location": "POINT (31.945725 -28.543914)",
    "longitude": 31.945725,
    "name": "kz Dondotha Clinic",
    "province": "KwaZulu-Natal",
    "short_name": "Dondotha Clinic"
   }
  },
  {
    "model": "clinicfinder.location",
    "fields":{
    "address": "Mkhuzeni-Elenge Road",
    "code": 711315,
    "latitude": -28.5294,
    "location": "POINT (30.283172 -28.529494)",
    "longitude": 30.283172,
    "name": "kz Douglas Clinic",
    "province": "KwaZulu-Natal",
    "short_name": "Douglas Clinic"
   }
  },
  {
    "model": "clinicfinder.location",
    "fields":{
    "address": null,
    "code": 443415,
    "latitude": -28.3432,
    "location": "POINT (29.702434 -28.343238)",
    "longitude": 29.702434,
    "name": "kz Driefontein Clinic",
    "province": "KwaZulu-Natal",
    "short_name": "Driefontein Clinic"
   }
  },
  {
    "model": "clinicfinder.location",
    "fields":{
    "address": "Old Main Road",
    "code": 658024,
    "latitude": -30.1944,
    "location": "POINT (30.603412 -30.19445)",
    "longitude": 30.603412,
    "name": "kz Dududu Clinic",
    "province": "KwaZulu-Natal",
    "short_name": "Dududu Clinic"
   }
  },
  {
    "model": "clinicfinder.location",
    "fields":{
    "address": null,
    "code": 650106,
    "latitude": -28.7503,
    "location": "POINT (29.208118 -28.75036)",
    "longitude": 29.208118,
    "name": "kz Dukuza Clinic",
    "province": "KwaZulu-Natal",
    "short_name": "Dukuza Clinic"
   }
  },
  {
    "model": "clinicfinder.location",
    "fields":{
    "address": "121 Mckenzie Street, Dundee",
    "code": 229351,
    "latitude": -28.1756,
    "location": "POINT (30.228182 -28.175611)",
    "longitude": 30.228182,
    "name": "kz Dundee Gateway Clinic",
    "province": "KwaZulu-Natal",
    "short_name": "Dundee Gateway"
   }
  },
  {
    "model": "clinicfinder.location",
    "fields":{
    "address": "Cnr Main and Magnolia Street",
    "code": 107051,
    "latitude": -28.0175,
    "location": "POINT (30.021361 -28.0175)",
    "longitude": 30.021361,
    "name": "kz Durnacol Clinic",
    "province": "KwaZulu-Natal",
    "short_name": "Durnacol Clinic"
   }
  },
  {
    "model": "clinicfinder.location",
    "fields":{
    "address": "Cnr The Avenue and Elliot Street",
    "code": 367060,
    "latitude": -30.5458,
    "location": "POINT (29.415438 -30.545827)",
    "longitude": 29.415438,
    "name": "kz East Griqualand and Usher Memorial Gateway Clinic",
    "province": "KwaZulu-Natal",
    "short_name": "EG Usher Gateway"
   }
  },
  {
    "model": "clinicfinder.location",
    "fields":{
    "address": "Cnr East and Boom Street, Pietermaritzburg",
    "code": 171442,
    "latitude": -29.5888,
    "location": "POINT (30.38626 -29.588893)",
    "longitude": 30.38626,
    "name": "kz East/Boom CHC",
    "province": "KwaZulu-Natal",
    "short_name": "East/Boom CHC"
   }
  },
  {
    "model": "clinicfinder.location",
    "fields":{
    "address": "55 Kingfisher Road, Eastwood",
    "code": 538133,
    "latitude": -29.5861,
    "location": "POINT (30.425589 -29.586198)",
    "longitude": 30.425589,
    "name": "kz Eastwood Clinic",
    "province": "KwaZulu-Natal",
    "short_name": "Eastwood Clinic"
   }
  },
  {
    "model": "clinicfinder.location",
    "fields":{
    "address": "Selby Msimang Road",
    "code": 437224,
    "latitude": -29.647,
    "location": "POINT (30.331807 -29.64701)",
    "longitude": 30.331807,
    "name": "kz Edendale Gateway Clinic",
    "province": "KwaZulu-Natal",
    "short_name": "Edendale Gateway"
   }
  },
  {
    "model": "clinicfinder.location",
    "fields":{
    "address": "D348 5km Efaye",
    "code": 954715,
    "latitude": -29.4473,
    "location": "POINT (30.724303 -29.447367)",
    "longitude": 30.724303,
    "name": "kz Efaye Clinic",
    "province": "KwaZulu-Natal",
    "short_name": "Efaye Clinic"
   }
  },
  {
    "model": "clinicfinder.location",
    "fields":{
    "address": null,
    "code": 538006,
    "latitude": -28.8611,
    "location": "POINT (30.697046 -28.861102)",
    "longitude": 30.697046,
    "name": "kz Ehlanzeni Clinic",
    "province": "KwaZulu-Natal",
    "short_name": "Ehlanzeni Clinic"
   }
  },
  {
    "model": "clinicfinder.location",
    "fields":{
    "address": "Qudeni Road",
    "code": 385433,
    "latitude": -28.6426,
    "location": "POINT (30.894272 -28.64263)",
    "longitude": 30.894272,
    "name": "kz Ekhombe Gateway Clinic",
    "province": "KwaZulu-Natal",
    "short_name": "Ekhombe Gateway"
   }
  },
  {
    "model": "clinicfinder.location",
    "fields":{
    "address": "Ekubungazeleni Area",
    "code": 618633,
    "latitude": -27.8753,
    "location": "POINT (31.767496 -27.875345)",
    "longitude": 31.767496,
    "name": "kz Ekubungazeleni Clinic",
    "province": "KwaZulu-Natal",
    "short_name": "Ekubungazeleni Clinic"
   }
  },
  {
    "model": "clinicfinder.location",
    "fields":{
    "address": "Ekuhlehleni",
    "code": 311106,
    "latitude": -26.8541,
    "location": "POINT (32.042652 -26.854188)",
    "longitude": 32.042652,
    "name": "kz Ekuhlehleni Clinic",
    "province": "KwaZulu-Natal",
    "short_name": "Ekuhlehleni Clinic"
   }
  },
  {
    "model": "clinicfinder.location",
    "fields":{
    "address": "Cnr Kick Road",
    "code": 675506,
    "latitude": -29.9679,
    "location": "POINT (30.863335 -29.967931)",
    "longitude": 30.863335,
    "name": "kz Ekuphileni (Umlazi L) Clinic",
    "province": "KwaZulu-Natal",
    "short_name": "Ekuphileni (Uml L) Clinic"
   }
  },
  {
    "model": "clinicfinder.location",
    "fields":{
    "address": "Ncekwane Street",
    "code": 347133,
    "latitude": -28.7815,
    "location": "POINT (31.760814 -28.781525)",
    "longitude": 31.760814,
    "name": "kz Ekuphumuleni Clinic",
    "province": "KwaZulu-Natal",
    "short_name": "Ekuphumuleni Clinic"
   }
  },
  {
    "model": "clinicfinder.location",
    "fields":{
    "address": "Ndaka Area",
    "code": 333415,
    "latitude": -28.4656,
    "location": "POINT (30.15713 -28.46566)",
    "longitude": 30.15713,
    "name": "kz Ekuvukeni Clinic",
    "province": "KwaZulu-Natal",
    "short_name": "Ekuvukeni Clinic"
   }
  },
  {
    "model": "clinicfinder.location",
    "fields":{
    "address": "Mbongweni Ward 5",
    "code": 625515,
    "latitude": -30.7263,
    "location": "POINT (29.994368 -30.726378)",
    "longitude": 29.994368,
    "name": "kz Elim Clinic",
    "province": "KwaZulu-Natal",
    "short_name": "Elim Clinic"
   }
  },
  {
    "model": "clinicfinder.location",
    "fields":{
    "address": null,
    "code": 916124,
    "latitude": -30.0781,
    "location": "POINT (30.552591 -30.07814)",
    "longitude": 30.552591,
    "name": "kz Embo Clinic",
    "province": "KwaZulu-Natal",
    "short_name": "Embo Clinic"
   }
  },
  {
    "model": "clinicfinder.location",
    "fields":{
    "address": "Emfundweni Farm",
    "code": 970824,
    "latitude": -27.8883,
    "location": "POINT (30.197712 -27.888307)",
    "longitude": 30.197712,
    "name": "kz Emfundweni Clinic",
    "province": "KwaZulu-Natal",
    "short_name": "Emfundweni Clinic"
   }
  },
  {
    "model": "clinicfinder.location",
    "fields":{
    "address": "Private Bag X0006",
    "code": 532315,
    "latitude": -27.3497,
    "location": "POINT (31.523142 -27.349778)",
    "longitude": 31.523142,
    "name": "kz Emkhwakhweni Clinic",
    "province": "KwaZulu-Natal",
    "short_name": "Emkhwakhweni Clinic"
   }
  },
  {
    "model": "clinicfinder.location",
    "fields":{
    "address": "Cathedral Peak Road, Winterton, 3340",
    "code": 877542,
    "latitude": -28.8526,
    "location": "POINT (29.381757 -28.852667)",
    "longitude": 29.381757,
    "name": "kz Emmaus Gateway Clinic",
    "province": "KwaZulu-Natal",
    "short_name": "Emmaus Gateway"
   }
  },
  {
    "model": "clinicfinder.location",
    "fields":{
    "address": "Cnr Turnbull and Pearce Crest",
    "code": 986860,
    "latitude": -28.7485,
    "location": "POINT (31.88924 -28.74858)",
    "longitude": 31.88924,
    "name": "kz Empangeni Clinic",
    "province": "KwaZulu-Natal",
    "short_name": "Empangeni Clinic"
   }
  },
  {
    "model": "clinicfinder.location",
    "fields":{
    "address": "64 Victoria Street",
    "code": 502533,
    "latitude": -28.1635,
    "location": "POINT (30.234331 -28.163535)",
    "longitude": 30.234331,
    "name": "kz Empathe Clinic",
    "province": "KwaZulu-Natal",
    "short_name": "Empathe Clinic"
   }
  },
  {
    "model": "clinicfinder.location",
    "fields":{
    "address": "Empophomeni Area, Kwangwanase, 3973",
    "code": 494651,
    "latitude": -27.1395,
    "location": "POINT (32.44598 -27.13959)",
    "longitude": 32.44598,
    "name": "kz Empophomeni Clinic",
    "province": "KwaZulu-Natal",
    "short_name": "Empophomeni Clinic"
   }
  },
  {
    "model": "clinicfinder.location",
    "fields":{
    "address": "D40 Road Emtulwa",
    "code": 700606,
    "latitude": -29.2335,
    "location": "POINT (30.763197 -29.233572)",
    "longitude": 30.763197,
    "name": "kz Emtulwa Clinic",
    "province": "KwaZulu-Natal",
    "short_name": "Emtulwa Clinic"
   }
  },
  {
    "model": "clinicfinder.location",
    "fields":{
    "address": "Ensingweni Reserve",
    "code": 344515,
    "latitude": -28.9568,
    "location": "POINT (31.639697 -28.956879)",
    "longitude": 31.639696999999998,
    "name": "kz Ensingweni Clinic",
    "province": "KwaZulu-Natal",
    "short_name": "Ensingweni Clinic"
   }
  },
  {
    "model": "clinicfinder.location",
    "fields":{
    "address": "Eshane",
    "code": 792760,
    "latitude": -29.1018,
    "location": "POINT (30.833872 -29.101888)",
    "longitude": 30.833872,
    "name": "kz Eshane Clinic",
    "province": "KwaZulu-Natal",
    "short_name": "Eshane Clinic"
   }
  },
  {
    "model": "clinicfinder.location",
    "fields":{
    "address": "Kangela Street",
    "code": 511415,
    "latitude": -28.891,
    "location": "POINT (31.466456 -28.891004)",
    "longitude": 31.466456,
    "name": "kz Eshowe Gateway Clinic",
    "province": "KwaZulu-Natal",
    "short_name": "Eshowe Gateway"
   }
  },
  {
    "model": "clinicfinder.location",
    "fields":{
    "address": null,
    "code": 227451,
    "latitude": -28.7551,
    "location": "POINT (31.166186 -28.755143)",
    "longitude": 31.166186,
    "name": "kz Esibhudeni Clinic",
    "province": "KwaZulu-Natal",
    "short_name": "Esibhudeni Clinic"
   }
  },
  {
    "model": "clinicfinder.location",
    "fields":{
    "address": "Next to Ceza Hospital, Echibini Road, Ceza, 3866",
    "code": 360242,
    "latitude": -28.0148,
    "location": "POINT (31.34506 -28.014865)",
    "longitude": 31.34506,
    "name": "kz Esidakeni Clinic",
    "province": "KwaZulu-Natal",
    "short_name": "Esidakeni Clinic"
   }
  },
  {
    "model": "clinicfinder.location",
    "fields":{
    "address": null,
    "code": 724442,
    "latitude": -29.38,
    "location": "POINT (30.99691 -29.38003)",
    "longitude": 30.99691,
    "name": "kz Esidumbini Clinic",
    "province": "KwaZulu-Natal",
    "short_name": "Esidumbini Clinic"
   }
  },
  {
    "model": "clinicfinder.location",
    "fields":{
    "address": "Waterfale Road",
    "code": 481215,
    "latitude": -29.6466,
    "location": "POINT (30.271711 -29.646601)",
    "longitude": 30.271711,
    "name": "kz Esigodini Clinic",
    "province": "KwaZulu-Natal",
    "short_name": "Esigodini Clinic"
   }
  },
  {
    "model": "clinicfinder.location",
    "fields":{
    "address": null,
    "code": 818415,
    "latitude": -28.3293,
    "location": "POINT (32.004851 -28.32931)",
    "longitude": 32.004851,
    "name": "kz Esiyembeni Clinic",
    "province": "KwaZulu-Natal",
    "short_name": "Esiyembeni Clinic"
   }
  },
  {
    "model": "clinicfinder.location",
    "fields":{
    "address": "Old Main Road, Estcourt, 3310",
    "code": 381542,
    "latitude": -29.0199,
    "location": "POINT (29.893897 -29.019916)",
    "longitude": 29.893897,
    "name": "kz Estcourt Gateway Clinic",
    "province": "KwaZulu-Natal",
    "short_name": "Estcourt Gateway"
   }
  },
  {
    "model": "clinicfinder.location",
    "fields":{
    "address": "Main Greytown Road",
    "code": 822815,
    "latitude": -28.8567,
    "location": "POINT (30.497734 -28.856707)",
    "longitude": 30.497734,
    "name": "kz Ethembeni Clinic",
    "province": "KwaZulu-Natal",
    "short_name": "Ethembeni Clinic"
   }
  },
  {
    "model": "clinicfinder.location",
    "fields":{
    "address": "Mangidini Reserve",
    "code": 287760,
    "latitude": -28.7899,
    "location": "POINT (31.290549 -28.789936)",
    "longitude": 31.290549,
    "name": "kz Ewangu Clinic",
    "province": "KwaZulu-Natal",
    "short_name": "Ewangu Clinic"
   }
  },
  {
    "model": "clinicfinder.location",
    "fields":{
    "address": null,
    "code": 978006,
    "latitude": -28.6188,
    "location": "POINT (29.91672 -28.618819)",
    "longitude": 29.91672,
    "name": "kz Ezakheni 2 Clinic",
    "province": "KwaZulu-Natal",
    "short_name": "Ezakheni 2 Clinic"
   }
  },
  {
    "model": "clinicfinder.location",
    "fields":{
    "address": "Chief Albert Luthuli Street",
    "code": 692251,
    "latitude": -28.6303,
    "location": "POINT (29.880666 -28.630372)",
    "longitude": 29.880666,
    "name": "kz Ezakheni E Clinic",
    "province": "KwaZulu-Natal",
    "short_name": "Ezakheni E Clinic"
   }
  },
  {
    "model": "clinicfinder.location",
    "fields":{
    "address": null,
    "code": 935215,
    "latitude": -28.1051,
    "location": "POINT (31.430373 -28.105189)",
    "longitude": 31.430373,
    "name": "kz Ezimfabeni Clinic",
    "province": "KwaZulu-Natal",
    "short_name": "Ezimfabeni Clinic"
   }
  },
  {
    "model": "clinicfinder.location",
    "fields":{
    "address": null,
    "code": 355242,
    "latitude": -27.7984,
    "location": "POINT (32.459631 -27.798443)",
    "longitude": 32.459631,
    "name": "kz Ezimpondweni Clinic",
    "province": "KwaZulu-Natal",
    "short_name": "Ezimpondweni Clinic"
   }
  },
  {
    "model": "clinicfinder.location",
    "fields":{
    "address": null,
    "code": 262824,
    "latitude": -30.0436,
    "location": "POINT (30.625611 -30.043694)",
    "longitude": 30.625611,
    "name": "kz Ezimwini Clinic",
    "province": "KwaZulu-Natal",
    "short_name": "Ezimwini Clinic"
   }
  },
  {
    "model": "clinicfinder.location",
    "fields":{
    "address": null,
    "code": 172551,
    "latitude": -28.4123,
    "location": "POINT (32.31265 -28.412392)",
    "longitude": 32.31265,
    "name": "kz Ezwenelisha Clinic",
    "province": "KwaZulu-Natal",
    "short_name": "Ezwenelisha Clinic"
   }
  },
  {
    "model": "clinicfinder.location",
    "fields":{
    "address": "Silutshani Area",
    "code": 751833,
    "latitude": -28.412,
    "location": "POINT (30.776845 -28.41207)",
    "longitude": 30.776845,
    "name": "kz Felani Clinic",
    "province": "KwaZulu-Natal",
    "short_name": "Felani Clinic"
   }
  },
  {
    "model": "clinicfinder.location",
    "fields":{
    "address": "Folweni B559",
    "code": 234542,
    "latitude": -29.9889,
    "location": "POINT (30.822584 -29.988935)",
    "longitude": 30.822584,
    "name": "kz Folweni Clinic",
    "province": "KwaZulu-Natal",
    "short_name": "Folweni Clinic"
   }
  },
  {
    "model": "clinicfinder.location",
    "fields":{
    "address": "Canna Avenue",
    "code": 343424,
    "latitude": -28.9956,
    "location": "POINT (29.870479 -28.995637)",
    "longitude": 29.870479,
    "name": "kz Forderville Clinic",
    "province": "KwaZulu-Natal",
    "short_name": "Forderville Clinic"
   }
  },
  {
    "model": "clinicfinder.location",
    "fields":{
    "address": null,
    "code": 316806,
    "latitude": -30.3166,
    "location": "POINT (29.44881 -30.31669)",
    "longitude": 29.44881,
    "name": "kz Franklin Health Post",
    "province": "KwaZulu-Natal",
    "short_name": "Franklin HP"
   }
  },
  {
    "model": "clinicfinder.location",
    "fields":{
    "address": "1 Inchanga Main Road",
    "code": 386624,
    "latitude": -29.7073,
    "location": "POINT (30.666838 -29.707327)",
    "longitude": 30.666838,
    "name": "kz Fredville Clinic",
    "province": "KwaZulu-Natal",
    "short_name": "Fredville Clinic"
   }
  },
  {
    "model": "clinicfinder.location",
    "fields":{
    "address": "Stand 318, D Bilanyoni",
    "code": 388351,
    "latitude": -27.391,
    "location": "POINT (30.953199 -27.391049)",
    "longitude": 30.953199,
    "name": "kz Friesgewacht Clinic",
    "province": "KwaZulu-Natal",
    "short_name": "Friesgewacht Clinic"
   }
  },
  {
    "model": "clinicfinder.location",
    "fields":{
    "address": null,
    "code": 615233,
    "latitude": -27.6,
    "location": "POINT (31.574 -27.6)",
    "longitude": 31.574,
    "name": "kz Fuduka Clinic",
    "province": "KwaZulu-Natal",
    "short_name": "Fuduka Clinic"
   }
  },
  {
    "model": "clinicfinder.location",
    "fields":{
    "address": "1 Hospital Road",
    "code": 687242,
    "latitude": -30.2883,
    "location": "POINT (30.744929 -30.288322)",
    "longitude": 30.744929,
    "name": "kz GJ Crooke's Gateway Clinic",
    "province": "KwaZulu-Natal",
    "short_name": "GJ Crooke's Gateway"
   }
  },
  {
    "model": "clinicfinder.location",
    "fields":{
    "address": "Rev Sithole Street",
    "code": 263506,
    "latitude": -30.8106,
    "location": "POINT (30.333604 -30.810667)",
    "longitude": 30.333604,
    "name": "kz Gamalakhe CHC",
    "province": "KwaZulu-Natal",
    "short_name": "Gamalakhe CHC"
   }
  },
  {
    "model": "clinicfinder.location",
    "fields":{
    "address": "Gcilima",
    "code": 763724,
    "latitude": -30.9104,
    "location": "POINT (30.245264 -30.910437)",
    "longitude": 30.245264,
    "name": "kz Gcilima Clinic",
    "province": "KwaZulu-Natal",
    "short_name": "Gcilima Clinic"
   }
  },
  {
    "model": "clinicfinder.location",
    "fields":{
    "address": "Mhlumayo Area",
    "code": 247342,
    "latitude": -28.688,
    "location": "POINT (30.134101 -28.688038)",
    "longitude": 30.134101,
    "name": "kz Gcinalishone Clinic",
    "province": "KwaZulu-Natal",
    "short_name": "Gcinalishone Clinic"
   }
  },
  {
    "model": "clinicfinder.location",
    "fields":{
    "address": "Mazabekweni Area",
    "code": 274451,
    "latitude": -30.2573,
    "location": "POINT (30.107824 -30.257325)",
    "longitude": 30.107824,
    "name": "kz Gcinokuhle Clinic",
    "province": "KwaZulu-Natal",
    "short_name": "Gcinokuhle Clinic"
   }
  },
  {
    "model": "clinicfinder.location",
    "fields":{
    "address": null,
    "code": 694242,
    "latitude": -29.5165,
    "location": "POINT (30.693798 -29.516558)",
    "longitude": 30.693798,
    "name": "kz Gcumisa Clinic",
    "province": "KwaZulu-Natal",
    "short_name": "Gcumisa Clinic"
   }
  },
  {
    "model": "clinicfinder.location",
    "fields":{
    "address": null,
    "code": 264924,
    "latitude": -27.4828,
    "location": "POINT (32.212832 -27.48284)",
    "longitude": 32.212832,
    "name": "kz Gedleza Clinic",
    "province": "KwaZulu-Natal",
    "short_name": "Gedleza Clinic"
   }
  },
  {
    "model": "clinicfinder.location",
    "fields":{
    "address": "213 Main Street, Gingindlovu, KwaGingindlovu, 3800",
    "code": 823551,
    "latitude": -29.0295,
    "location": "POINT (31.58741 -29.029562)",
    "longitude": 31.58741,
    "name": "kz Gingindlovu Clinic",
    "province": "KwaZulu-Natal",
    "short_name": "Gingindlovu Clinic"
   }
  },
  {
    "model": "clinicfinder.location",
    "fields":{
    "address": "260 John Dory Drive",
    "code": 611106,
    "latitude": -29.7802,
    "location": "POINT (30.979304 -29.780207)",
    "longitude": 30.979304,
    "name": "kz Glen Earle Clinic",
    "province": "KwaZulu-Natal",
    "short_name": "Glen Earle Clinic"
   }
  },
  {
    "model": "clinicfinder.location",
    "fields":{
    "address": "25 Mars Drive, Glen Hills, KwaDukuza, 4449",
    "code": 303124,
    "latitude": -29.338,
    "location": "POINT (31.265694 -29.338028)",
    "longitude": 31.265694,
    "name": "kz Glenhills Clinic",
    "province": "KwaZulu-Natal",
    "short_name": "Glenhills Clinic"
   }
  },
  {
    "model": "clinicfinder.location",
    "fields":{
    "address": "28 Schroeder Road",
    "code": 226533,
    "latitude": -28.1756,
    "location": "POINT (30.145466 -28.175632)",
    "longitude": 30.145466,
    "name": "kz Glenridge Clinic",
    "province": "KwaZulu-Natal",
    "short_name": "Glenridge Clinic"
   }
  },
  {
    "model": "clinicfinder.location",
    "fields":{
    "address": "Gelukstadt Road",
    "code": 312442,
    "latitude": -27.9741,
    "location": "POINT (31.039209 -27.97413)",
    "longitude": 31.039209,
    "name": "kz Gluckstadt Clinic",
    "province": "KwaZulu-Natal",
    "short_name": "Gluckstadt Clinic"
   }
  },
  {
    "model": "clinicfinder.location",
    "fields":{
    "address": "Mafahleni Street, Impendle",
    "code": 926442,
    "latitude": -29.6051,
    "location": "POINT (29.864119 -29.605188)",
    "longitude": 29.864119,
    "name": "kz Gomane Clinic",
    "province": "KwaZulu-Natal",
    "short_name": "Gomane Clinic"
   }
  },
  {
    "model": "clinicfinder.location",
    "fields":{
    "address": "E942 Sidiya",
    "code": 179542,
    "latitude": -29.7361,
    "location": "POINT (30.993893 -29.736116)",
    "longitude": 30.993893,
    "name": "kz Goodwins Clinic",
    "province": "KwaZulu-Natal",
    "short_name": "Goodwins Clinic"
   }
  },
  {
    "model": "clinicfinder.location",
    "fields":{
    "address": "Gowanlee Clinic",
    "code": 432315,
    "latitude": -30.3121,
    "location": "POINT (29.764151 -30.312136)",
    "longitude": 29.764151,
    "name": "kz Gowanlee Clinic",
    "province": "KwaZulu-Natal",
    "short_name": "Gowanlee Clinic"
   }
  },
  {
    "model": "clinicfinder.location",
    "fields":{
    "address": "Kwahlongwa Area",
    "code": 790551,
    "latitude": -30.5669,
    "location": "POINT (30.46637 -30.56695)",
    "longitude": 30.46637,
    "name": "kz Gqayinyanga Clinic",
    "province": "KwaZulu-Natal",
    "short_name": "Gqayinyanga Clinic"
   }
  },
  {
    "model": "clinicfinder.location",
    "fields":{
    "address": "Gqumeni Area",
    "code": 708642,
    "latitude": -29.8932,
    "location": "POINT (29.741814 -29.893285)",
    "longitude": 29.741814,
    "name": "kz Gqumeni Clinic",
    "province": "KwaZulu-Natal",
    "short_name": "Gqumeni Clinic"
   }
  },
  {
    "model": "clinicfinder.location",
    "fields":{
    "address": "45 White Road Grange",
    "code": 584215,
    "latitude": -29.6414,
    "location": "POINT (30.372556 -29.64141)",
    "longitude": 30.372556,
    "name": "kz Grange Clinic",
    "province": "KwaZulu-Natal",
    "short_name": "Grange Clinic"
   }
  },
  {
    "model": "clinicfinder.location",
    "fields":{
    "address": "Greenrock Farm, Mncube Stand",
    "code": 222324,
    "latitude": -27.857,
    "location": "POINT (30.268785 -27.857)",
    "longitude": 30.268785,
    "name": "kz Greenock Clinic",
    "province": "KwaZulu-Natal",
    "short_name": "Greenock Clinic"
   }
  },
  {
    "model": "clinicfinder.location",
    "fields":{
    "address": "Bell Street",
    "code": 282706,
    "latitude": -29.0663,
    "location": "POINT (30.599351 -29.066398)",
    "longitude": 30.599351,
    "name": "kz Greytown Gateway Clinic",
    "province": "KwaZulu-Natal",
    "short_name": "Greytown Gateway"
   }
  },
  {
    "model": "clinicfinder.location",
    "fields":{
    "address": null,
    "code": 476124,
    "latitude": -27.4526,
    "location": "POINT (30.21887 -27.4526)",
    "longitude": 30.21887,
    "name": "kz Groenvlei Clinic",
    "province": "KwaZulu-Natal",
    "short_name": "Groenvlei Clinic"
   }
  },
  {
    "model": "clinicfinder.location",
    "fields":{
    "address": "R102 Old Main Road",
    "code": 493424,
    "latitude": -29.3889,
    "location": "POINT (31.25236 -29.38898)",
    "longitude": 31.25236,
    "name": "kz Groutville Clinic",
    "province": "KwaZulu-Natal",
    "short_name": "Groutville Clinic"
   }
  },
  {
    "model": "clinicfinder.location",
    "fields":{
    "address": "68 Elfway",
    "code": 917960,
    "latitude": -29.6979,
    "location": "POINT (31.024376 -29.697956)",
    "longitude": 31.024376,
    "name": "kz Grove End Clinic",
    "province": "KwaZulu-Natal",
    "short_name": "Grove End Clinic"
   }
  },
  {
    "model": "clinicfinder.location",
    "fields":{
    "address": "Dressini A/A",
    "code": 728142,
    "latitude": -30.5029,
    "location": "POINT (29.873274 -30.502985)",
    "longitude": 29.873274,
    "name": "kz Gugwini Clinic",
    "province": "KwaZulu-Natal",
    "short_name": "Gugwini Clinic"
   }
  },
  {
    "model": "clinicfinder.location",
    "fields":{
    "address": "P281",
    "code": 170115,
    "latitude": -28.637,
    "location": "POINT (30.337662 -28.637012)",
    "longitude": 30.337662,
    "name": "kz Gunjana Clinic",
    "province": "KwaZulu-Natal",
    "short_name": "Gunjana Clinic"
   }
  },
  {
    "model": "clinicfinder.location",
    "fields":{
    "address": "Gunjaneni Reserve",
    "code": 428024,
    "latitude": -28.2448,
    "location": "POINT (32.088031 -28.244887)",
    "longitude": 32.088031,
    "name": "kz Gunjaneni Clinic",
    "province": "KwaZulu-Natal",
    "short_name": "Gunjaneni Clinic"
   }
  },
  {
    "model": "clinicfinder.location",
    "fields":{
    "address": "D1203",
    "code": 288706,
    "latitude": -29.8574,
    "location": "POINT (29.790247 -29.857451)",
    "longitude": 29.790247,
    "name": "kz Gwala Clinic",
    "province": "KwaZulu-Natal",
    "short_name": "Gwala Clinic"
   }
  },
  {
    "model": "clinicfinder.location",
    "fields":{
    "address": null,
    "code": 304433,
    "latitude": -27.3071,
    "location": "POINT (31.97787 -27.307164)",
    "longitude": 31.97787,
    "name": "kz Gwaliweni Clinic",
    "province": "KwaZulu-Natal",
    "short_name": "Gwaliweni Clinic"
   }
  },
  {
    "model": "clinicfinder.location",
    "fields":{
    "address": "Zulu Reserve Road",
    "code": 827024,
    "latitude": -29.739,
    "location": "POINT (30.736651 -29.739076)",
    "longitude": 30.736651,
    "name": "kz Halley Stott Clinic",
    "province": "KwaZulu-Natal",
    "short_name": "Halley Stott Clinic"
   }
  },
  {
    "model": "clinicfinder.location",
    "fields":{
    "address": "361 Thandukwazi Road",
    "code": 782542,
    "latitude": -29.5584,
    "location": "POINT (31.119384 -29.55842)",
    "longitude": 31.119384,
    "name": "kz Hambanathi Clinic",
    "province": "KwaZulu-Natal",
    "short_name": "Hambanathi Clinic"
   }
  },
  {
    "model": "clinicfinder.location",
    "fields":{
    "address": "Field Street",
    "code": 682751,
    "latitude": -30.5748,
    "location": "POINT (29.883081 -30.574847)",
    "longitude": 29.883081,
    "name": "kz Harding Clinic",
    "province": "KwaZulu-Natal",
    "short_name": "Harding Clinic"
   }
  },
  {
    "model": "clinicfinder.location",
    "fields":{
    "address": null,
    "code": 805306,
    "latitude": -27.4261,
    "location": "POINT (31.046216 -27.426151)",
    "longitude": 31.046216,
    "name": "kz Hartland Clinic",
    "province": "KwaZulu-Natal",
    "short_name": "Hartland Clinic"
   }
  },
  {
    "model": "clinicfinder.location",
    "fields":{
    "address": null,
    "code": 527324,
    "latitude": -28.1435,
    "location": "POINT (31.878932 -28.14357)",
    "longitude": 31.878932,
    "name": "kz Hlabisa Gateway Clinic",
    "province": "KwaZulu-Natal",
    "short_name": "Hlabisa Gateway"
   }
  },
  {
    "model": "clinicfinder.location",
    "fields":{
    "address": "Nqutu-Dundee Road",
    "code": 951542,
    "latitude": -28.2375,
    "location": "POINT (30.543403 -28.237575)",
    "longitude": 30.543403,
    "name": "kz Hlathi Dam Clinic",
    "province": "KwaZulu-Natal",
    "short_name": "Hlathi Dam Clinic"
   }
  },
  {
    "model": "clinicfinder.location",
    "fields":{
    "address": "Sgubudu",
    "code": 359924,
    "latitude": -28.1117,
    "location": "POINT (31.672289 -28.111798)",
    "longitude": 31.672289,
    "name": "kz Hlengimpilo Clinic",
    "province": "KwaZulu-Natal",
    "short_name": "Hlengimpilo Clinic"
   }
  },
  {
    "model": "clinicfinder.location",
    "fields":{
    "address": "Unit 6 Sibisi Road, Mpumalanga Township",
    "code": 993160,
    "latitude": -29.8228,
    "location": "POINT (30.654752 -29.822854)",
    "longitude": 30.654752,
    "name": "kz Hlengisizwe CHC",
    "province": "KwaZulu-Natal",
    "short_name": "Hlengisizwe CHC"
   }
  },
  {
    "model": "clinicfinder.location",
    "fields":{
    "address": "Thuthukani Area, Hlobane",
    "code": 641615,
    "latitude": -27.7202,
    "location": "POINT (31.00125 -27.720218)",
    "longitude": 31.00125,
    "name": "kz Hlobane Clinic",
    "province": "KwaZulu-Natal",
    "short_name": "Hlobane Clinic"
   }
  },
  {
    "model": "clinicfinder.location",
    "fields":{
    "address": null,
    "code": 318615,
    "latitude": -30.3611,
    "location": "POINT (30.293525 -30.36116)",
    "longitude": 30.293525,
    "name": "kz Hlokozi Clinic",
    "province": "KwaZulu-Natal",
    "short_name": "Hlokozi Clinic"
   }
  },
  {
    "model": "clinicfinder.location",
    "fields":{
    "address": null,
    "code": 207424,
    "latitude": -29.1859,
    "location": "POINT (31.396888 -29.185972)",
    "longitude": 31.396888,
    "name": "kz Hlomendlini Clinic",
    "province": "KwaZulu-Natal",
    "short_name": "Hlomendlini Clinic"
   }
  },
  {
    "model": "clinicfinder.location",
    "fields":{
    "address": null,
    "code": 983342,
    "latitude": -28.0219,
    "location": "POINT (32.27056 -28.02194)",
    "longitude": 32.27056,
    "name": "kz Hluhluwe Clinic",
    "province": "KwaZulu-Natal",
    "short_name": "Hluhluwe Clinic"
   }
  },
  {
    "model": "clinicfinder.location",
    "fields":{
    "address": "24 Morning Street",
    "code": 810306,
    "latitude": -29.4869,
    "location": "POINT (30.231673 -29.486964)",
    "longitude": 30.231673,
    "name": "kz Howick Clinic",
    "province": "KwaZulu-Natal",
    "short_name": "Howick Clinic"
   }
  },
  {
    "model": "clinicfinder.location",
    "fields":{
    "address": "Ibisi Area",
    "code": 484324,
    "latitude": -30.392,
    "location": "POINT (29.89 -30.392)",
    "longitude": 29.89,
    "name": "kz Ibisi Clinic",
    "province": "KwaZulu-Natal",
    "short_name": "Ibisi Clinic"
   }
  },
  {
    "model": "clinicfinder.location",
    "fields":{
    "address": null,
    "code": 249351,
    "latitude": -28.5246,
    "location": "POINT (31.147925 -28.524682)",
    "longitude": 31.147925,
    "name": "kz Idlebe Clinic",
    "province": "KwaZulu-Natal",
    "short_name": "Idlebe Clinic"
   }
  },
  {
    "model": "clinicfinder.location",
    "fields":{
    "address": "Thwala Road, Imbali 3",
    "code": 742624,
    "latitude": -29.6567,
    "location": "POINT (30.342274 -29.656726)",
    "longitude": 30.342274,
    "name": "kz Imbalenhle CHC",
    "province": "KwaZulu-Natal",
    "short_name": "Imbalenhle CHC"
   }
  },
  {
    "model": "clinicfinder.location",
    "fields":{
    "address": "Imbali Unit 14",
    "code": 967542,
    "latitude": -29.6696,
    "location": "POINT (30.35163 -29.66965)",
    "longitude": 30.35163,
    "name": "kz Impilwenhle Clinic",
    "province": "KwaZulu-Natal",
    "short_name": "Impilwenhle Clinic"
   }
  },
  {
    "model": "clinicfinder.location",
    "fields":{
    "address": "C 135 Umshado Road",
    "code": 584424,
    "latitude": -29.7116,
    "location": "POINT (30.9727 -29.711636)",
    "longitude": 30.9727,
    "name": "kz Inanda C CHC",
    "province": "KwaZulu-Natal",
    "short_name": "Inanda C CHC"
   }
  },
  {
    "model": "clinicfinder.location",
    "fields":{
    "address": "Portion of 699",
    "code": 262624,
    "latitude": -29.7081,
    "location": "POINT (30.921801 -29.708128)",
    "longitude": 30.921801,
    "name": "kz Inanda Seminary Clinic",
    "province": "KwaZulu-Natal",
    "short_name": "Inanda Seminary Clinic"
   }
  },
  {
    "model": "clinicfinder.location",
    "fields":{
    "address": null,
    "code": 465424,
    "latitude": -27.5916,
    "location": "POINT (29.90522 -27.59167)",
    "longitude": 29.90522,
    "name": "kz Ingogo Clinic",
    "province": "KwaZulu-Natal",
    "short_name": "Ingogo Clinic"
   }
  },
  {
    "model": "clinicfinder.location",
    "fields":{
    "address": null,
    "code": 881142,
    "latitude": -28.017,
    "location": "POINT (31.974591 -28.017056)",
    "longitude": 31.974591,
    "name": "kz Inhlwathi Clinic",
    "province": "KwaZulu-Natal",
    "short_name": "Inhlwathi Clinic"
   }
  },
  {
    "model": "clinicfinder.location",
    "fields":{
    "address": "2 Nagle Dam Road, Cato Ridge, 3680",
    "code": 233660,
    "latitude": -29.6027,
    "location": "POINT (30.632033 -29.602782)",
    "longitude": 30.632033,
    "name": "kz Injabulo Clinic",
    "province": "KwaZulu-Natal",
    "short_name": "Injabulo Clinic"
   }
  },
  {
    "model": "clinicfinder.location",
    "fields":{
    "address": "Loskop Road",
    "code": 136433,
    "latitude": -28.9403,
    "location": "POINT (29.577493 -28.940356)",
    "longitude": 29.577493,
    "name": "kz Injisuthi Clinic",
    "province": "KwaZulu-Natal",
    "short_name": "Injisuthi Clinic"
   }
  },
  {
    "model": "clinicfinder.location",
    "fields":{
    "address": "Maphutshana Area, Isandlwana",
    "code": 113651,
    "latitude": -28.3606,
    "location": "POINT (30.667854 -28.360692)",
    "longitude": 30.667854,
    "name": "kz Isandlwana Clinic",
    "province": "KwaZulu-Natal",
    "short_name": "Isandlwana Clinic"
   }
  },
  {
    "model": "clinicfinder.location",
    "fields":{
    "address": "Mpembeni Reserve",
    "code": 961924,
    "latitude": -28.8268,
    "location": "POINT (32.015155 -28.826854)",
    "longitude": 32.015155,
    "name": "kz Isiboniso Clinic",
    "province": "KwaZulu-Natal",
    "short_name": "Isiboniso Clinic"
   }
  },
  {
    "model": "clinicfinder.location",
    "fields":{
    "address": "3 Orient Drive",
    "code": 237624,
    "latitude": -29.9887,
    "location": "POINT (30.925438 -29.988776)",
    "longitude": 30.925438,
    "name": "kz Isipingo Clinic",
    "province": "KwaZulu-Natal",
    "short_name": "Isipingo Clinic"
   }
  },
  {
    "model": "clinicfinder.location",
    "fields":{
    "address": "P266 Nyoni Road",
    "code": 273515,
    "latitude": -29.094,
    "location": "POINT (31.42997 -29.094065)",
    "longitude": 31.42997,
    "name": "kz Isithebe Clinic",
    "province": "KwaZulu-Natal",
    "short_name": "Isithebe Clinic"
   }
  },
  {
    "model": "clinicfinder.location",
    "fields":{
    "address": null,
    "code": 734224,
    "latitude": -29.2442,
    "location": "POINT (30.97919 -29.24427)",
    "longitude": 30.97919,
    "name": "kz Isithundu Clinic",
    "province": "KwaZulu-Natal",
    "short_name": "Isithundu Clinic"
   }
  },
  {
    "model": "clinicfinder.location",
    "fields":{
    "address": "N2 Between Phongola and Piet Rietief",
    "code": 564715,
    "latitude": -27.2759,
    "location": "POINT (31.346008 -27.275939)",
    "longitude": 31.346008,
    "name": "kz Itshelejuba Gateway Clinic",
    "province": "KwaZulu-Natal",
    "short_name": "Itshelejuba Gateway"
   }
  },
  {
    "model": "clinicfinder.location",
    "fields":{
    "address": "19 Main Road",
    "code": 795251,
    "latitude": -30.1475,
    "location": "POINT (30.067251 -30.14758)",
    "longitude": 30.067251,
    "name": "kz Ixopo Clinic",
    "province": "KwaZulu-Natal",
    "short_name": "Ixopo Clinic"
   }
  },
  {
    "model": "clinicfinder.location",
    "fields":{
    "address": "Next To Harding Main Road",
    "code": 755242,
    "latitude": -30.7819,
    "location": "POINT (30.124694 -30.781979)",
    "longitude": 30.124694,
    "name": "kz Izingolweni Clinic",
    "province": "KwaZulu-Natal",
    "short_name": "Izingolweni Clinic"
   }
  },
  {
    "model": "clinicfinder.location",
    "fields":{
    "address": "Jolivet R612 Road",
    "code": 237633,
    "latitude": -30.267,
    "location": "POINT (30.354227 -30.267048)",
    "longitude": 30.354227,
    "name": "kz Jolivet Clinic",
    "province": "KwaZulu-Natal",
    "short_name": "Jolivet Clinic"
   }
  },
  {
    "model": "clinicfinder.location",
    "fields":{
    "address": "Jozini Main Road",
    "code": 622742,
    "latitude": -27.4257,
    "location": "POINT (32.072643 -27.425728)",
    "longitude": 32.072643,
    "name": "kz Jozini Clinic",
    "province": "KwaZulu-Natal",
    "short_name": "Jozini Clinic"
   }
  },
  {
    "model": "clinicfinder.location",
    "fields":{
    "address": null,
    "code": 218124,
    "latitude": -27.9115,
    "location": "POINT (31.418312 -27.911506)",
    "longitude": 31.418312,
    "name": "kz Kahhemulana Clinic",
    "province": "KwaZulu-Natal",
    "short_name": "Kahhemulana Clinic"
   }
  },
  {
    "model": "clinicfinder.location",
    "fields":{
    "address": "R74 Maphumulo Road, Fowsley Park",
    "code": 561660,
    "latitude": -29.2937,
    "location": "POINT (31.23963 -29.29379)",
    "longitude": 31.23963,
    "name": "kz Kearsney Clinic",
    "province": "KwaZulu-Natal",
    "short_name": "Kearsney Clinic"
   }
  },
  {
    "model": "clinicfinder.location",
    "fields":{
    "address": "Khambi Tribal Court",
    "code": 252360,
    "latitude": -27.7784,
    "location": "POINT (31.31442 -27.778483)",
    "longitude": 31.31442,
    "name": "kz Khambi Clinic",
    "province": "KwaZulu-Natal",
    "short_name": "Khambi Clinic"
   }
  },
  {
    "model": "clinicfinder.location",
    "fields":{
    "address": "Truro Plaza, Khan Road",
    "code": 288842,
    "latitude": -29.5491,
    "location": "POINT (30.405328 -29.549102)",
    "longitude": 30.405328,
    "name": "kz Khan Road Clinic",
    "province": "KwaZulu-Natal",
    "short_name": "Khan Road Clinic"
   }
  },
  {
    "model": "clinicfinder.location",
    "fields":{
    "address": "Lot 176 Mfundo Street",
    "code": 473651,
    "latitude": -28.86,
    "location": "POINT (31.832524 -28.860026)",
    "longitude": 31.832524,
    "name": "kz Khandisa Clinic",
    "province": "KwaZulu-Natal",
    "short_name": "Khandisa Clinic"
   }
  },
  {
    "model": "clinicfinder.location",
    "fields":{
    "address": null,
    "code": 358133,
    "latitude": -30.45,
    "location": "POINT (29.42 -30.45)",
    "longitude": 29.42,
    "name": "kz Khanyiselani Health Post",
    "province": "KwaZulu-Natal",
    "short_name": "Khanyiselani HP"
   }
  },
  {
    "model": "clinicfinder.location",
    "fields":{
    "address": "Opposite Inkanyizi and Uthwalume High",
    "code": 215733,
    "latitude": -30.4519,
    "location": "POINT (30.534696 -30.451966)",
    "longitude": 30.534696,
    "name": "kz Khayelihle Clinic",
    "province": "KwaZulu-Natal",
    "short_name": "Khayelihle Clinic"
   }
  },
  {
    "model": "clinicfinder.location",
    "fields":{
    "address": null,
    "code": 667133,
    "latitude": -29.9534,
    "location": "POINT (29.551501 -29.953434)",
    "longitude": 29.551501000000002,
    "name": "kz Kilmun Clinic",
    "province": "KwaZulu-Natal",
    "short_name": "Kilmun Clinic"
   }
  },
  {
    "model": "clinicfinder.location",
    "fields":{
    "address": "911 Ndlela Street, Genzinsila A, Eshowe, 3815",
    "code": 573442,
    "latitude": -28.8886,
    "location": "POINT (31.496544 -28.888676)",
    "longitude": 31.496544,
    "name": "kz King Dinuzulu Clinic",
    "province": "KwaZulu-Natal",
    "short_name": "King Dinuzulu Clinic"
   }
  },
  {
    "model": "clinicfinder.location",
    "fields":{
    "address": "9 Meyors Mews",
    "code": 923824,
    "latitude": -30.0964,
    "location": "POINT (30.854874 -30.096479)",
    "longitude": 30.854874,
    "name": "kz Kingsburgh Clinic",
    "province": "KwaZulu-Natal",
    "short_name": "Kingsburgh Clinic"
   }
  },
  {
    "model": "clinicfinder.location",
    "fields":{
    "address": "Cnr Mkomazi and Ndwadwe Street",
    "code": 210106,
    "latitude": -29.884,
    "location": "POINT (30.830041 -29.884085)",
    "longitude": 30.830041,
    "name": "kz Klaarwater Clinic",
    "province": "KwaZulu-Natal",
    "short_name": "Klaarwater Clinic"
   }
  },
  {
    "model": "clinicfinder.location",
    "fields":{
    "address": "Kleinfontein Area",
    "code": 215724,
    "latitude": -28.3629,
    "location": "POINT (29.649562 -28.362957)",
    "longitude": 29.649562,
    "name": "kz Kleinfontein Clinic",
    "province": "KwaZulu-Natal",
    "short_name": "Kleinfontein Clinic"
   }
  },
  {
    "model": "clinicfinder.location",
    "fields":{
    "address": "2 Umzwilili Road, Kloof, 3610",
    "code": 258251,
    "latitude": -29.7887,
    "location": "POINT (30.836834 -29.7887)",
    "longitude": 30.836834,
    "name": "kz Kloof Clinic",
    "province": "KwaZulu-Natal",
    "short_name": "Kloof Clinic"
   }
  },
  {
    "model": "clinicfinder.location",
    "fields":{
    "address": "Cnr Barker Street and St John Street",
    "code": 847406,
    "latitude": -30.5501,
    "location": "POINT (29.428712 -30.550192)",
    "longitude": 29.428712,
    "name": "kz Kokstad Clinic",
    "province": "KwaZulu-Natal",
    "short_name": "Kokstad Clinic"
   }
  },
  {
    "model": "clinicfinder.location",
    "fields":{
    "address": "Main Street, Kranskop",
    "code": 482724,
    "latitude": -28.9686,
    "location": "POINT (30.864253 -28.968633)",
    "longitude": 30.864253,
    "name": "kz Kranskop Clinic",
    "province": "KwaZulu-Natal",
    "short_name": "Kranskop Clinic"
   }
  },
  {
    "model": "clinicfinder.location",
    "fields":{
    "address": "4 Khululeka Drive, KwaDabeka, Pinetown, 3610",
    "code": 375115,
    "latitude": -29.7773,
    "location": "POINT (30.89754 -29.777379)",
    "longitude": 30.89754,
    "name": "kz KwaDabeka CHC",
    "province": "KwaZulu-Natal",
    "short_name": "Kwadabeka CHC"
   }
  },
  {
    "model": "clinicfinder.location",
    "fields":{
    "address": "5-7 Theunissen Road",
    "code": 878315,
    "latitude": -29.3426,
    "location": "POINT (31.289139 -29.342611)",
    "longitude": 31.289139,
    "name": "kz KwaDukuza Clinic",
    "province": "KwaZulu-Natal",
    "short_name": "KwaDukuza Clinic"
   }
  },
  {
    "model": "clinicfinder.location",
    "fields":{
    "address": "Mawani Road",
    "code": 267124,
    "latitude": -30.6599,
    "location": "POINT (29.737489 -30.659905)",
    "longitude": 29.737489,
    "name": "kz KwaJali Clinic",
    "province": "KwaZulu-Natal",
    "short_name": "KwaJali Clinic"
   }
  },
  {
    "model": "clinicfinder.location",
    "fields":{
    "address": "Kwamagwaza Reserve",
    "code": 263124,
    "latitude": -28.6293,
    "location": "POINT (31.34105 -28.629326)",
    "longitude": 31.34105,
    "name": "kz KwaMagwaza Gateway Clinic",
    "province": "KwaZulu-Natal",
    "short_name": "KwaMagwaza Gateway"
   }
  },
  {
    "model": "clinicfinder.location",
    "fields":{
    "address": "1364 Nana Gumede Road",
    "code": 391224,
    "latitude": -30.0248,
    "location": "POINT (30.865235 -30.024871)",
    "longitude": 30.865235,
    "name": "kz KwaMakhutha Clinic",
    "province": "KwaZulu-Natal",
    "short_name": "KwaMakhutha Clinic"
   }
  },
  {
    "model": "clinicfinder.location",
    "fields":{
    "address": "Mahlabathini",
    "code": 945206,
    "latitude": -28.1409,
    "location": "POINT (31.490248 -28.140982)",
    "longitude": 31.490248,
    "name": "kz KwaMame Clinic",
    "province": "KwaZulu-Natal",
    "short_name": "KwaMame Clinic"
   }
  },
  {
    "model": "clinicfinder.location",
    "fields":{
    "address": "B27 Isinaka Road",
    "code": 961842,
    "latitude": -29.747,
    "location": "POINT (30.9898 -29.747005)",
    "longitude": 30.9898,
    "name": "kz KwaMashu B Clinic",
    "province": "KwaZulu-Natal",
    "short_name": "KwaMashu B Clinic"
   }
  },
  {
    "model": "clinicfinder.location",
    "fields":{
    "address": "G1400 Bhejane Road",
    "code": 252642,
    "latitude": -29.7455,
    "location": "POINT (30.973758 -29.745533)",
    "longitude": 30.973758,
    "name": "kz KwaMashu Poly CHC",
    "province": "KwaZulu-Natal",
    "short_name": "KwaMashu Poly CHC"
   }
  },
  {
    "model": "clinicfinder.location",
    "fields":{
    "address": null,
    "code": 704251,
    "latitude": -28.5494,
    "location": "POINT (31.64875 -28.549444)",
    "longitude": 31.64875,
    "name": "kz KwaMbiza Clinic",
    "province": "KwaZulu-Natal",
    "short_name": "KwaMbiza Clinic"
   }
  },
  {
    "model": "clinicfinder.location",
    "fields":{
    "address": "Sappi Clinic, Kambonambi",
    "code": 516024,
    "latitude": -28.5945,
    "location": "POINT (32.090448 -28.594565)",
    "longitude": 32.090448,
    "name": "kz KwaMbonambi Clinic (Sappi Clinic)",
    "province": "KwaZulu-Natal",
    "short_name": "KwaMbonambi Clinic (Sappi)"
   }
  },
  {
    "model": "clinicfinder.location",
    "fields":{
    "address": "Ward 22, Madakane",
    "code": 264315,
    "latitude": -30.728,
    "location": "POINT (30.344023 -30.728043)",
    "longitude": 30.344023,
    "name": "kz KwaMbunde Clinic",
    "province": "KwaZulu-Natal",
    "short_name": "KwaMbunde Clinic"
   }
  },
  {
    "model": "clinicfinder.location",
    "fields":{
    "address": null,
    "code": 764433,
    "latitude": -27.1815,
    "location": "POINT (32.190224 -27.181558)",
    "longitude": 32.190224,
    "name": "kz KwaMbuzi Clinic",
    "province": "KwaZulu-Natal",
    "short_name": "Kwambuzi Clinic"
   }
  },
  {
    "model": "clinicfinder.location",
    "fields":{
    "address": null,
    "code": 557342,
    "latitude": -28.4278,
    "location": "POINT (32.14819 -28.427853)",
    "longitude": 32.14819,
    "name": "kz KwaMsane Clinic",
    "province": "KwaZulu-Natal",
    "short_name": "KwaMsane Clinic"
   }
  },
  {
    "model": "clinicfinder.location",
    "fields":{
    "address": null,
    "code": 252651,
    "latitude": -28.63,
    "location": "POINT (30.070762 -28.630023)",
    "longitude": 30.070762,
    "name": "kz KwaMteyi Clinic",
    "province": "KwaZulu-Natal",
    "short_name": "KwaMteyi Clinic"
   }
  },
  {
    "model": "clinicfinder.location",
    "fields":{
    "address": "Manguzi Main Road",
    "code": 608306,
    "latitude": -27.0217,
    "location": "POINT (32.30583 -27.02172)",
    "longitude": 32.30583,
    "name": "kz KwaNdaba Clinic",
    "province": "KwaZulu-Natal",
    "short_name": "KwaNdaba Clinic"
   }
  },
  {
    "model": "clinicfinder.location",
    "fields":{
    "address": "6023 Maviyo Road",
    "code": 358606,
    "latitude": -29.8638,
    "location": "POINT (30.778203 -29.863892)",
    "longitude": 30.778203,
    "name": "kz KwaNdengezi Clinic",
    "province": "KwaZulu-Natal",
    "short_name": "KwaNdengezi Clinic"
   }
  },
  {
    "model": "clinicfinder.location",
    "fields":{
    "address": "208347 Wushwini Road",
    "code": 182406,
    "latitude": -29.7017,
    "location": "POINT (30.83853 -29.701715)",
    "longitude": 30.83853,
    "name": "kz KwaNgcolosi Clinic",
    "province": "KwaZulu-Natal",
    "short_name": "Ngcolosi Clinic"
   }
  },
  {
    "model": "clinicfinder.location",
    "fields":{
    "address": "Ntumbane",
    "code": 863633,
    "latitude": -27.3987,
    "location": "POINT (31.267911 -27.398768)",
    "longitude": 31.267911,
    "name": "kz KwaNkundla Clinic",
    "province": "KwaZulu-Natal",
    "short_name": "KwaNkundla Clinic"
   }
  },
  {
    "model": "clinicfinder.location",
    "fields":{
    "address": "Mabululwane Road",
    "code": 545360,
    "latitude": -28.3255,
    "location": "POINT (30.758873 -28.325542)",
    "longitude": 30.758873,
    "name": "kz KwaNyezi Clinic",
    "province": "KwaZulu-Natal",
    "short_name": "KwaNyezi Clinic"
   }
  },
  {
    "model": "clinicfinder.location",
    "fields":{
    "address": null,
    "code": 203124,
    "latitude": -29.4375,
    "location": "POINT (30.95808 -29.43752)",
    "longitude": 30.95808,
    "name": "kz KwaNyuswa Clinic",
    "province": "KwaZulu-Natal",
    "short_name": "KwaNyuswa Clinic"
   }
  },
  {
    "model": "clinicfinder.location",
    "fields":{
    "address": null,
    "code": 397460,
    "latitude": -28.8082,
    "location": "POINT (30.775305 -28.808277)",
    "longitude": 30.775305,
    "name": "kz KwaSenge Clinic",
    "province": "KwaZulu-Natal",
    "short_name": "KwaSenge Clinic"
   }
  },
  {
    "model": "clinicfinder.location",
    "fields":{
    "address": "Kwashoba",
    "code": 252842,
    "latitude": -27.3676,
    "location": "POINT (31.474445 -27.367699)",
    "longitude": 31.474445,
    "name": "kz KwaShoba Clinic",
    "province": "KwaZulu-Natal",
    "short_name": "KwaShoba Clinic"
   }
  },
  {
    "model": "clinicfinder.location",
    "fields":{
    "address": "Yanguye Reserve",
    "code": 357342,
    "latitude": -28.4887,
    "location": "POINT (31.550763 -28.488744)",
    "longitude": 31.550763,
    "name": "kz KwaYanguye Clinic",
    "province": "KwaZulu-Natal",
    "short_name": "KwaYanguye Clinic"
   }
  },
  {
    "model": "clinicfinder.location",
    "fields":{
    "address": "Kwamashumi Area",
    "code": 964842,
    "latitude": -30.3336,
    "location": "POINT (30.11636 -30.33363)",
    "longitude": 30.11636,
    "name": "kz Kwamashumi Clinic",
    "province": "KwaZulu-Natal",
    "short_name": "Kwamashumi Clinic"
   }
  },
  {
    "model": "clinicfinder.location",
    "fields":{
    "address": "1 Library Lane",
    "code": 496751,
    "latitude": -29.7543,
    "location": "POINT (31.062306 -29.754355)",
    "longitude": 31.062306,
    "name": "kz La Lucia Clinic",
    "province": "KwaZulu-Natal",
    "short_name": "La Lucia Clinic"
   }
  },
  {
    "model": "clinicfinder.location",
    "fields":{
    "address": "Ndzelu Area",
    "code": 623851,
    "latitude": -30.3136,
    "location": "POINT (29.794662 -30.313632)",
    "longitude": 29.794662,
    "name": "kz Ladam Irene Clinic",
    "province": "KwaZulu-Natal",
    "short_name": "Ladam Irene Clinic"
   }
  },
  {
    "model": "clinicfinder.location",
    "fields":{
    "address": "Ladybank Farm Nyanyadu Area Thwala Stand",
    "code": 897915,
    "latitude": -27.9641,
    "location": "POINT (30.215397 -27.964157)",
    "longitude": 30.215397,
    "name": "kz Ladybank Clinic",
    "province": "KwaZulu-Natal",
    "short_name": "Ladybank Clinic"
   }
  },
  {
    "model": "clinicfinder.location",
    "fields":{
    "address": "36 Malcom Road",
    "code": 658742,
    "latitude": -28.5589,
    "location": "POINT (29.765105 -28.558966)",
    "longitude": 29.765105,
    "name": "kz Ladysmith Gateway Clinic",
    "province": "KwaZulu-Natal",
    "short_name": "Ladysmith Gateway"
   }
  },
  {
    "model": "clinicfinder.location",
    "fields":{
    "address": "Hull and Gwala Street",
    "code": 182206,
    "latitude": -29.9423,
    "location": "POINT (30.949916 -29.942391)",
    "longitude": 30.949916,
    "name": "kz Lamontville Clinic",
    "province": "KwaZulu-Natal",
    "short_name": "Lamontville Clinic"
   }
  },
  {
    "model": "clinicfinder.location",
    "fields":{
    "address": "90 Lancers Road",
    "code": 701742,
    "latitude": -29.858,
    "location": "POINT (31.009989 -29.858078)",
    "longitude": 31.009989,
    "name": "kz Lancers Road Clinic",
    "province": "KwaZulu-Natal",
    "short_name": "Lancers Road Clinic"
   }
  },
  {
    "model": "clinicfinder.location",
    "fields":{
    "address": "Limehill Area",
    "code": 604733,
    "latitude": -28.4384,
    "location": "POINT (30.243822 -28.438401)",
    "longitude": 30.243822,
    "name": "kz Limehill Clinic",
    "province": "KwaZulu-Natal",
    "short_name": "Limehill Clinic"
   }
  },
  {
    "model": "clinicfinder.location",
    "fields":{
    "address": "6th Street",
    "code": 123851,
    "latitude": -28.5388,
    "location": "POINT (29.805344 -28.538814)",
    "longitude": 29.805344,
    "name": "kz Limit Hill Clinic",
    "province": "KwaZulu-Natal",
    "short_name": "Limit Hill Clinic"
   }
  },
  {
    "model": "clinicfinder.location",
    "fields":{
    "address": "A2047 Dukuza Road, Ntuzuma",
    "code": 348106,
    "latitude": -29.743,
    "location": "POINT (30.93067 -29.74307)",
    "longitude": 30.93067,
    "name": "kz Lindelani Clinic",
    "province": "KwaZulu-Natal",
    "short_name": "Lindelani Clinic"
   }
  },
  {
    "model": "clinicfinder.location",
    "fields":{
    "address": "Lomo",
    "code": 940506,
    "latitude": -28.2168,
    "location": "POINT (31.634449 -28.216836)",
    "longitude": 31.634449,
    "name": "kz Lomo Clinic",
    "province": "KwaZulu-Natal",
    "short_name": "Lomo Clinic"
   }
  },
  {
    "model": "clinicfinder.location",
    "fields":{
    "address": "Ediphini Area",
    "code": 270433,
    "latitude": -30.2001,
    "location": "POINT (29.68099 -30.20015)",
    "longitude": 29.68099,
    "name": "kz Lourdes Clinic",
    "province": "KwaZulu-Natal",
    "short_name": "Lourdes Clinic"
   }
  },
  {
    "model": "clinicfinder.location",
    "fields":{
    "address": "7 Market Street, Abaqulusi",
    "code": 243833,
    "latitude": -27.578,
    "location": "POINT (31.30045 -27.578009)",
    "longitude": 31.30045,
    "name": "kz Louwsburg Clinic",
    "province": "KwaZulu-Natal",
    "short_name": "Louwsburg Clinic"
   }
  },
  {
    "model": "clinicfinder.location",
    "fields":{
    "address": "R603 Eston",
    "code": 629724,
    "latitude": -30.0622,
    "location": "POINT (30.826807 -30.062287)",
    "longitude": 30.826807,
    "name": "kz Lovu Clinic",
    "province": "KwaZulu-Natal",
    "short_name": "Lovu Clinic"
   }
  },
  {
    "model": "clinicfinder.location",
    "fields":{
    "address": "Lamont",
    "code": 557960,
    "latitude": -30.8689,
    "location": "POINT (30.28333 -30.868931)",
    "longitude": 30.28333,
    "name": "kz Ludimala Clinic",
    "province": "KwaZulu-Natal",
    "short_name": "Ludimala Clinic"
   }
  },
  {
    "model": "clinicfinder.location",
    "fields":{
    "address": "16310 Lugada Road",
    "code": 798733,
    "latitude": -29.8881,
    "location": "POINT (30.804059 -29.888163)",
    "longitude": 30.804059,
    "name": "kz Luganda Clinic",
    "province": "KwaZulu-Natal",
    "short_name": "Luganda Clinic"
   }
  },
  {
    "model": "clinicfinder.location",
    "fields":{
    "address": null,
    "code": 261133,
    "latitude": -27.3298,
    "location": "POINT (30.630928 -27.329847)",
    "longitude": 30.630928,
    "name": "kz Luneburg Clinic",
    "province": "KwaZulu-Natal",
    "short_name": "Luneburg Clinic"
   }
  },
  {
    "model": "clinicfinder.location",
    "fields":{
    "address": null,
    "code": 348542,
    "latitude": -28.6292,
    "location": "POINT (31.69477 -28.62923)",
    "longitude": 31.69477,
    "name": "kz Luwamba Clinic",
    "province": "KwaZulu-Natal",
    "short_name": "Luwamba Clinic"
   }
  },
  {
    "model": "clinicfinder.location",
    "fields":{
    "address": "Ndabayakhe Res",
    "code": 802660,
    "latitude": -28.8079,
    "location": "POINT (31.863623 -28.807909)",
    "longitude": 31.863623,
    "name": "kz Mabamba Clinic",
    "province": "KwaZulu-Natal",
    "short_name": "Mabamba Clinic"
   }
  },
  {
    "model": "clinicfinder.location",
    "fields":{
    "address": "Mabedlane",
    "code": 736433,
    "latitude": -28.2998,
    "location": "POINT (31.383896 -28.299812)",
    "longitude": 31.383896,
    "name": "kz Mabedlane Clinic",
    "province": "KwaZulu-Natal",
    "short_name": "Mabedlane Clinic"
   }
  },
  {
    "model": "clinicfinder.location",
    "fields":{
    "address": "Isipofu Road",
    "code": 593106,
    "latitude": -30.442,
    "location": "POINT (30.32103 -30.442095)",
    "longitude": 30.32103,
    "name": "kz Mabheleni Clinic",
    "province": "KwaZulu-Natal",
    "short_name": "Mabheleni Clinic"
   }
  },
  {
    "model": "clinicfinder.location",
    "fields":{
    "address": "Mabhuqwini Area",
    "code": 838551,
    "latitude": -28.5101,
    "location": "POINT (30.835554 -28.510142)",
    "longitude": 30.835554,
    "name": "kz Mabhuqweni Clinic",
    "province": "KwaZulu-Natal",
    "short_name": "Mabhuqweni Clinic"
   }
  },
  {
    "model": "clinicfinder.location",
    "fields":{
    "address": "Near Mabibi Primary School",
    "code": 872715,
    "latitude": -27.3283,
    "location": "POINT (32.730917 -27.328386)",
    "longitude": 32.730917,
    "name": "kz Mabibi Clinic",
    "province": "KwaZulu-Natal",
    "short_name": "Mabibi Clinic"
   }
  },
  {
    "model": "clinicfinder.location",
    "fields":{
    "address": null,
    "code": 273460,
    "latitude": -28.0281,
    "location": "POINT (32.159973 -28.028112)",
    "longitude": 32.159973,
    "name": "kz Macabuzela Clinic",
    "province": "KwaZulu-Natal",
    "short_name": "Macabuzela Clinic"
   }
  },
  {
    "model": "clinicfinder.location",
    "fields":{
    "address": "Wangu Area",
    "code": 311051,
    "latitude": -29.126,
    "location": "POINT (31.56994 -29.12605)",
    "longitude": 31.56994,
    "name": "kz Macambini Clinic",
    "province": "KwaZulu-Natal",
    "short_name": "Macambini Clinic"
   }
  },
  {
    "model": "clinicfinder.location",
    "fields":{
    "address": "Machibini Reserve Next To Mawombe High School",
    "code": 453051,
    "latitude": -28.2812,
    "location": "POINT (32.045222 -28.28121)",
    "longitude": 32.045222,
    "name": "kz Machibini Clinic",
    "province": "KwaZulu-Natal",
    "short_name": "Machibini Clinic"
   }
  },
  {
    "model": "clinicfinder.location",
    "fields":{
    "address": "Amajuba Section 1",
    "code": 564251,
    "latitude": -27.7521,
    "location": "POINT (30.02397 -27.752178)",
    "longitude": 30.02397,
    "name": "kz Madadeni 1 Clinic",
    "province": "KwaZulu-Natal",
    "short_name": "Madadeni 1 Clinic"
   }
  },
  {
    "model": "clinicfinder.location",
    "fields":{
    "address": "9295 Section5 Thokoza Street",
    "code": 307751,
    "latitude": -27.7565,
    "location": "POINT (30.042047 -27.756522)",
    "longitude": 30.042047,
    "name": "kz Madadeni 5 Clinic",
    "province": "KwaZulu-Natal",
    "short_name": "Madadeni 5 Clinic"
   }
  },
  {
    "model": "clinicfinder.location",
    "fields":{
    "address": "9327 Business Suite",
    "code": 537824,
    "latitude": -27.7487,
    "location": "POINT (30.032849 -27.74878)",
    "longitude": 30.032849,
    "name": "kz Madadeni 7 Clinic",
    "province": "KwaZulu-Natal",
    "short_name": "Madadeni 7 Clinic"
   }
  },
  {
    "model": "clinicfinder.location",
    "fields":{
    "address": "Section 6 Madadeni",
    "code": 295742,
    "latitude": -27.7635,
    "location": "POINT (30.0508 -27.763598)",
    "longitude": 30.0508,
    "name": "kz Madadeni Gateway Clinic",
    "province": "KwaZulu-Natal",
    "short_name": "Madadeni Gateway"
   }
  },
  {
    "model": "clinicfinder.location",
    "fields":{
    "address": "Draycott Road",
    "code": 667106,
    "latitude": -28.9793,
    "location": "POINT (29.692634 -28.979378)",
    "longitude": 29.692633999999998,
    "name": "kz Madiba Clinic",
    "province": "KwaZulu-Natal",
    "short_name": "Madiba Clinic"
   }
  },
  {
    "model": "clinicfinder.location",
    "fields":{
    "address": "Madlala Area, next To Sozabe School",
    "code": 561533,
    "latitude": -30.6311,
    "location": "POINT (30.427246 -30.631138)",
    "longitude": 30.427246,
    "name": "kz Madlala Clinic",
    "province": "KwaZulu-Natal",
    "short_name": "Madlala Clinic"
   }
  },
  {
    "model": "clinicfinder.location",
    "fields":{
    "address": "Jozini Area",
    "code": 599642,
    "latitude": -27.3428,
    "location": "POINT (32.262485 -27.342884)",
    "longitude": 32.262485,
    "name": "kz Madonela Clinic",
    "province": "KwaZulu-Natal",
    "short_name": "Madonela Clinic"
   }
  },
  {
    "model": "clinicfinder.location",
    "fields":{
    "address": null,
    "code": 138242,
    "latitude": -28.2637,
    "location": "POINT (32.222039 -28.263719)",
    "longitude": 32.222039,
    "name": "kz Madwaleni Clinic",
    "province": "KwaZulu-Natal",
    "short_name": "Madwaleni Clinic"
   }
  },
  {
    "model": "clinicfinder.location",
    "fields":{
    "address": null,
    "code": 531551,
    "latitude": -29.6438,
    "location": "POINT (30.147524 -29.643866)",
    "longitude": 30.147524,
    "name": "kz Mafakathini Clinic",
    "province": "KwaZulu-Natal",
    "short_name": "Mafakathini Clinic"
   }
  },
  {
    "model": "clinicfinder.location",
    "fields":{
    "address": "Sibaya Highway Road",
    "code": 822442,
    "latitude": -30.1734,
    "location": "POINT (30.765875 -30.173454)",
    "longitude": 30.765875,
    "name": "kz Magabheni Clinic",
    "province": "KwaZulu-Natal",
    "short_name": "Magabheni Clinic"
   }
  },
  {
    "model": "clinicfinder.location",
    "fields":{
    "address": null,
    "code": 494933,
    "latitude": -28.246,
    "location": "POINT (31.117 -28.246)",
    "longitude": 31.117,
    "name": "kz Magagadolo Clinic",
    "province": "KwaZulu-Natal",
    "short_name": "Magagadolo Clinic"
   }
  },
  {
    "model": "clinicfinder.location",
    "fields":{
    "address": "Maqongqo Area",
    "code": 538315,
    "latitude": -29.5815,
    "location": "POINT (30.564617 -29.58151)",
    "longitude": 30.564617,
    "name": "kz Maguzu Clinic",
    "province": "KwaZulu-Natal",
    "short_name": "Maguzu Clinic"
   }
  },
  {
    "model": "clinicfinder.location",
    "fields":{
    "address": "Mahashini",
    "code": 368151,
    "latitude": -27.8764,
    "location": "POINT (31.525672 -27.876477)",
    "longitude": 31.525672,
    "name": "kz Mahashini Clinic",
    "province": "KwaZulu-Natal",
    "short_name": "Mahashini Clinic"
   }
  },
  {
    "model": "clinicfinder.location",
    "fields":{
    "address": "Mahlungulu Area",
    "code": 555424,
    "latitude": -26.8863,
    "location": "POINT (32.81163 -26.886326)",
    "longitude": 32.81163,
    "name": "kz Mahlungulu Clinic",
    "province": "KwaZulu-Natal",
    "short_name": "Mahlungulu Clinic"
   }
  },
  {
    "model": "clinicfinder.location",
    "fields":{
    "address": null,
    "code": 894733,
    "latitude": -29.5539,
    "location": "POINT (29.599389 -29.553917)",
    "longitude": 29.599389,
    "name": "kz Mahlutshini Clinic",
    "province": "KwaZulu-Natal",
    "short_name": "Mahlutshini Clinic"
   }
  },
  {
    "model": "clinicfinder.location",
    "fields":{
    "address": null,
    "code": 348633,
    "latitude": -27.4438,
    "location": "POINT (32.160264 -27.443833)",
    "longitude": 32.160264,
    "name": "kz Makhathini Clinic",
    "province": "KwaZulu-Natal",
    "short_name": "Makhathini Clinic"
   }
  },
  {
    "model": "clinicfinder.location",
    "fields":{
    "address": "Makhosini",
    "code": 728406,
    "latitude": -28.379,
    "location": "POINT (31.27149 -28.379038)",
    "longitude": 31.27149,
    "name": "kz Makhosini Clinic",
    "province": "KwaZulu-Natal",
    "short_name": "Makhosini Clinic"
   }
  },
  {
    "model": "clinicfinder.location",
    "fields":{
    "address": null,
    "code": 751224,
    "latitude": -27.9607,
    "location": "POINT (32.14029 -27.960785)",
    "longitude": 32.14029,
    "name": "kz Makhowe Clinic",
    "province": "KwaZulu-Natal",
    "short_name": "Makhowe Clinic"
   }
  },
  {
    "model": "clinicfinder.location",
    "fields":{
    "address": "Makhwela",
    "code": 711260,
    "latitude": -27.6867,
    "location": "POINT (31.349522 -27.686776)",
    "longitude": 31.349522,
    "name": "kz Makhwela Clinic",
    "province": "KwaZulu-Natal",
    "short_name": "Makhwela Clinic"
   }
  },
  {
    "model": "clinicfinder.location",
    "fields":{
    "address": "Malenge Clinic",
    "code": 711806,
    "latitude": -30.1522,
    "location": "POINT (29.62256 -30.15223)",
    "longitude": 29.62256,
    "name": "kz Malenge Clinic",
    "province": "KwaZulu-Natal",
    "short_name": "Malenge Clinic"
   }
  },
  {
    "model": "clinicfinder.location",
    "fields":{
    "address": null,
    "code": 404942,
    "latitude": -28.5369,
    "location": "POINT (30.90192 -28.536972)",
    "longitude": 30.90192,
    "name": "kz Malunga Clinic",
    "province": "KwaZulu-Natal",
    "short_name": "Malunga Clinic"
   }
  },
  {
    "model": "clinicfinder.location",
    "fields":{
    "address": null,
    "code": 830251,
    "latitude": -29.4882,
    "location": "POINT (30.626056 -29.488222)",
    "longitude": 30.626056,
    "name": "kz Mambedwini Clinic",
    "province": "KwaZulu-Natal",
    "short_name": "Mambedwini Clinic"
   }
  },
  {
    "model": "clinicfinder.location",
    "fields":{
    "address": null,
    "code": 636151,
    "latitude": -27.2872,
    "location": "POINT (32.434316 -27.287264)",
    "longitude": 32.434316,
    "name": "kz Manaba Clinic",
    "province": "KwaZulu-Natal",
    "short_name": "Manaba Clinic"
   }
  },
  {
    "model": "clinicfinder.location",
    "fields":{
    "address": "Mandaba Reserve",
    "code": 422224,
    "latitude": -28.6802,
    "location": "POINT (31.215694 -28.680245)",
    "longitude": 31.215694,
    "name": "kz Mandaba Clinic",
    "province": "KwaZulu-Natal",
    "short_name": "Mandaba Clinic"
   }
  },
  {
    "model": "clinicfinder.location",
    "fields":{
    "address": "2 Kingfisher Road",
    "code": 286633,
    "latitude": -29.1511,
    "location": "POINT (31.40918 -29.15111)",
    "longitude": 31.40918,
    "name": "kz Mandeni Clinic",
    "province": "KwaZulu-Natal",
    "short_name": "Mandeni Clinic"
   }
  },
  {
    "model": "clinicfinder.location",
    "fields":{
    "address": "Via Verbena",
    "code": 211333,
    "latitude": -28.7384,
    "location": "POINT (32.104152 -28.738427)",
    "longitude": 32.104152,
    "name": "kz Mandlanzini Clinic",
    "province": "KwaZulu-Natal",
    "short_name": "Mandlanzini Clinic"
   }
  },
  {
    "model": "clinicfinder.location",
    "fields":{
    "address": "Mandleni Area",
    "code": 993133,
    "latitude": -28.7237,
    "location": "POINT (30.357548 -28.723759)",
    "longitude": 30.357548,
    "name": "kz Mandleni Clinic",
    "province": "KwaZulu-Natal",
    "short_name": "Mandleni Clinic"
   }
  },
  {
    "model": "clinicfinder.location",
    "fields":{
    "address": null,
    "code": 406233,
    "latitude": -28.4661,
    "location": "POINT (30.773054 -28.466106)",
    "longitude": 30.773054,
    "name": "kz Mangeni Clinic",
    "province": "KwaZulu-Natal",
    "short_name": "Mangeni Clinic"
   }
  },
  {
    "model": "clinicfinder.location",
    "fields":{
    "address": null,
    "code": 428233,
    "latitude": -28.507,
    "location": "POINT (30.739652 -28.507089)",
    "longitude": 30.739652,
    "name": "kz Manxili Clinic",
    "province": "KwaZulu-Natal",
    "short_name": "Manxili Clinic"
   }
  },
  {
    "model": "clinicfinder.location",
    "fields":{
    "address": null,
    "code": 555742,
    "latitude": -28.7752,
    "location": "POINT (30.903556 -28.775219)",
    "longitude": 30.903556000000002,
    "name": "kz Manyane Clinic",
    "province": "KwaZulu-Natal",
    "short_name": "Manyane Clinic"
   }
  },
  {
    "model": "clinicfinder.location",
    "fields":{
    "address": null,
    "code": 881333,
    "latitude": -26.914,
    "location": "POINT (32.035636 -26.914005)",
    "longitude": 32.035636,
    "name": "kz Manyiseni Clinic",
    "province": "KwaZulu-Natal",
    "short_name": "Manyiseni Clinic"
   }
  },
  {
    "model": "clinicfinder.location",
    "fields":{
    "address": null,
    "code": 588724,
    "latitude": -29.6453,
    "location": "POINT (30.792157 -29.645303)",
    "longitude": 30.792157,
    "name": "kz Maphephetheni Clinic",
    "province": "KwaZulu-Natal",
    "short_name": "Maphephetheni Clinic"
   }
  },
  {
    "model": "clinicfinder.location",
    "fields":{
    "address": "Maphomoma Area",
    "code": 501206,
    "latitude": -28.0376,
    "location": "POINT (31.680247 -28.037674)",
    "longitude": 31.680247,
    "name": "kz Maphophoma Clinic",
    "province": "KwaZulu-Natal",
    "short_name": "Maphophoma Clinic"
   }
  },
  {
    "model": "clinicfinder.location",
    "fields":{
    "address": "Maphulo Central",
    "code": 311542,
    "latitude": -29.1554,
    "location": "POINT (31.068111 -29.155417)",
    "longitude": 31.068111,
    "name": "kz Maphumulo Clinic",
    "province": "KwaZulu-Natal",
    "short_name": "Maphumulo Clinic"
   }
  },
  {
    "model": "clinicfinder.location",
    "fields":{
    "address": "Manguza Main Road",
    "code": 671533,
    "latitude": -26.9944,
    "location": "POINT (32.755556 -26.99444)",
    "longitude": 32.755556,
    "name": "kz Maputa Clinic",
    "province": "KwaZulu-Natal",
    "short_name": "Maputa Clinic"
   }
  },
  {
    "model": "clinicfinder.location",
    "fields":{
    "address": null,
    "code": 484651,
    "latitude": -29.1709,
    "location": "POINT (31.20272 -29.17097)",
    "longitude": 31.20272,
    "name": "kz Maqumbi Clinic",
    "province": "KwaZulu-Natal",
    "short_name": "Maqumbi Clinic"
   }
  },
  {
    "model": "clinicfinder.location",
    "fields":{
    "address": "2 Protea Road",
    "code": 726615,
    "latitude": -30.7475,
    "location": "POINT (30.429661 -30.747541)",
    "longitude": 30.429661,
    "name": "kz Marburg Clinic",
    "province": "KwaZulu-Natal",
    "short_name": "Marburg Clinic"
   }
  },
  {
    "model": "clinicfinder.location",
    "fields":{
    "address": "Erasmus Road",
    "code": 128760,
    "latitude": -30.8653,
    "location": "POINT (30.364259 -30.865354)",
    "longitude": 30.364259,
    "name": "kz Margate Clinic",
    "province": "KwaZulu-Natal",
    "short_name": "Margate Clinic"
   }
  },
  {
    "model": "clinicfinder.location",
    "fields":{
    "address": "8 Leo Place, Mazakhele, Pinetown, 3610",
    "code": 424542,
    "latitude": -29.8624,
    "location": "POINT (30.821242 -29.86246)",
    "longitude": 30.821242,
    "name": "kz Mariannridge Clinic",
    "province": "KwaZulu-Natal",
    "short_name": "Mariannridge Clinic"
   }
  },
  {
    "model": "clinicfinder.location",
    "fields":{
    "address": null,
    "code": 548651,
    "latitude": -28.2236,
    "location": "POINT (31.477124 -28.223665)",
    "longitude": 31.477124,
    "name": "kz Mashona Clinic",
    "province": "KwaZulu-Natal",
    "short_name": "Mashona Clinic"
   }
  },
  {
    "model": "clinicfinder.location",
    "fields":{
    "address": "Cnr Mason and Church Street",
    "code": 490415,
    "latitude": -27.7657,
    "location": "POINT (30.801089 -27.765778)",
    "longitude": 30.801089,
    "name": "kz Mason Street Clinic",
    "province": "KwaZulu-Natal",
    "short_name": "Mason Str Clinic"
   }
  },
  {
    "model": "clinicfinder.location",
    "fields":{
    "address": "96 Lazarus Road",
    "code": 828833,
    "latitude": -29.5555,
    "location": "POINT (30.43459 -29.555598)",
    "longitude": 30.43459,
    "name": "kz Masons Clinic",
    "province": "KwaZulu-Natal",
    "short_name": "Masons Clinic"
   }
  },
  {
    "model": "clinicfinder.location",
    "fields":{
    "address": "Masotsheni Area",
    "code": 146533,
    "latitude": -28.2866,
    "location": "POINT (30.576745 -28.286626)",
    "longitude": 30.576745,
    "name": "kz Masotsheni Clinic",
    "province": "KwaZulu-Natal",
    "short_name": "Masotsheni Clinic"
   }
  },
  {
    "model": "clinicfinder.location",
    "fields":{
    "address": null,
    "code": 692342,
    "latitude": -28.897100000000002,
    "location": "POINT (31.080947 -28.897132)",
    "longitude": 31.080947,
    "name": "kz Mathungela Clinic",
    "province": "KwaZulu-Natal",
    "short_name": "Mathungela Clinic"
   }
  },
  {
    "model": "clinicfinder.location",
    "fields":{
    "address": "Matiwaneskop",
    "code": 362551,
    "latitude": -28.3507,
    "location": "POINT (29.898098 -28.350766)",
    "longitude": 29.898098,
    "name": "kz Matiwaneskop Clinic",
    "province": "KwaZulu-Natal",
    "short_name": "Matiwaneskop Clinic"
   }
  },
  {
    "model": "clinicfinder.location",
    "fields":{
    "address": "Tugela Ferry Main Road",
    "code": 837742,
    "latitude": -28.6944,
    "location": "POINT (30.556254 -28.694418)",
    "longitude": 30.556254,
    "name": "kz Mawele Clinic",
    "province": "KwaZulu-Natal",
    "short_name": "Mawele Clinic"
   }
  },
  {
    "model": "clinicfinder.location",
    "fields":{
    "address": "Mayizekanye Clinic, D599 Road",
    "code": 541460,
    "latitude": -29.5311,
    "location": "POINT (30.625178 -29.531196)",
    "longitude": 30.625178,
    "name": "kz Mayizekane Clinic",
    "province": "KwaZulu-Natal",
    "short_name": "Mayizekane Clinic"
   }
  },
  {
    "model": "clinicfinder.location",
    "fields":{
    "address": "Mazabeko Area, Pomeroy",
    "code": 867733,
    "latitude": -28.5306,
    "location": "POINT (30.587037 -28.530684)",
    "longitude": 30.587037,
    "name": "kz Mazabeko Clinic",
    "province": "KwaZulu-Natal",
    "short_name": "Mazabeko Clinic"
   }
  },
  {
    "model": "clinicfinder.location",
    "fields":{
    "address": "Mbadleni Area",
    "code": 637624,
    "latitude": -26.9626,
    "location": "POINT (32.135216 -26.962688)",
    "longitude": 32.135216,
    "name": "kz Mbadleni Clinic",
    "province": "KwaZulu-Natal",
    "short_name": "Mbadleni Clinic"
   }
  },
  {
    "model": "clinicfinder.location",
    "fields":{
    "address": null,
    "code": 534433,
    "latitude": -28.8218,
    "location": "POINT (30.403348 -28.821811)",
    "longitude": 30.403348,
    "name": "kz Mbangweni Clinic",
    "province": "KwaZulu-Natal",
    "short_name": "Mbangweni Clinic"
   }
  },
  {
    "model": "clinicfinder.location",
    "fields":{
    "address": null,
    "code": 510433,
    "latitude": -27.4854,
    "location": "POINT (32.585998 -27.485445)",
    "longitude": 32.585998000000004,
    "name": "kz Mbazwana Clinic",
    "province": "KwaZulu-Natal",
    "short_name": "Mbazwana Clinic"
   }
  },
  {
    "model": "clinicfinder.location",
    "fields":{
    "address": "R74 To Greytown",
    "code": 385042,
    "latitude": -29.0896,
    "location": "POINT (30.96804 -29.0896)",
    "longitude": 30.96804,
    "name": "kz Mbekaphansi Clinic",
    "province": "KwaZulu-Natal",
    "short_name": "Mbekaphansi Clinic"
   }
  },
  {
    "model": "clinicfinder.location",
    "fields":{
    "address": "Mkhoba",
    "code": 565833,
    "latitude": -30.6169,
    "location": "POINT (29.79969 -30.61694)",
    "longitude": 29.79969,
    "name": "kz Mbonwa Clinic",
    "province": "KwaZulu-Natal",
    "short_name": "Mbonwa Clinic"
   }
  },
  {
    "model": "clinicfinder.location",
    "fields":{
    "address": null,
    "code": 746742,
    "latitude": -30.5777,
    "location": "POINT (30.0456 -30.577783)",
    "longitude": 30.0456,
    "name": "kz Mbotho Clinic",
    "province": "KwaZulu-Natal",
    "short_name": "Mbotho Clinic"
   }
  },
  {
    "model": "clinicfinder.location",
    "fields":{
    "address": "Mboza Area",
    "code": 265933,
    "latitude": -27.1803,
    "location": "POINT (32.269858 -27.180321)",
    "longitude": 32.269858,
    "name": "kz Mboza Clinic",
    "province": "KwaZulu-Natal",
    "short_name": "Mboza Clinic"
   }
  },
  {
    "model": "clinicfinder.location",
    "fields":{
    "address": null,
    "code": 752806,
    "latitude": -30.0597,
    "location": "POINT (30.457809 -30.059721)",
    "longitude": 30.457809,
    "name": "kz Mbuthisweni Clinic",
    "province": "KwaZulu-Natal",
    "short_name": "Mbuthisweni Clinic"
   }
  },
  {
    "model": "clinicfinder.location",
    "fields":{
    "address": "Mduku Area",
    "code": 864306,
    "latitude": -27.8281,
    "location": "POINT (32.388065 -27.828102)",
    "longitude": 32.388065,
    "name": "kz Mduku Clinic",
    "province": "KwaZulu-Natal",
    "short_name": "Mduku Clinic"
   }
  },
  {
    "model": "clinicfinder.location",
    "fields":{
    "address": "Chief Owen Street",
    "code": 599933,
    "latitude": -28.2849,
    "location": "POINT (31.428107 -28.284967)",
    "longitude": 31.428107,
    "name": "kz Mdumezulu Clinic",
    "province": "KwaZulu-Natal",
    "short_name": "Mdumezulu Clinic"
   }
  },
  {
    "model": "clinicfinder.location",
    "fields":{
    "address": "Nyuswa Road",
    "code": 759742,
    "latitude": -30.6389,
    "location": "POINT (30.032132 -30.638913)",
    "longitude": 30.032132,
    "name": "kz Meadow Sweet Clinic",
    "province": "KwaZulu-Natal",
    "short_name": "Meadow Sweet Clinic"
   }
  },
  {
    "model": "clinicfinder.location",
    "fields":{
    "address": null,
    "code": 333142,
    "latitude": -28.7803,
    "location": "POINT (32.1014 -28.780305)",
    "longitude": 32.1014,
    "name": "kz Meerensee Clinic",
    "province": "KwaZulu-Natal",
    "short_name": "Meerensee Clinic"
   }
  },
  {
    "model": "clinicfinder.location",
    "fields":{
    "address": "376 A Symond Street",
    "code": 853951,
    "latitude": -28.589199999999998,
    "location": "POINT (31.397946 -28.589261)",
    "longitude": 31.397946,
    "name": "kz Melmoth Clinic",
    "province": "KwaZulu-Natal",
    "short_name": "Melmoth Clinic"
   }
  },
  {
    "model": "clinicfinder.location",
    "fields":{
    "address": "1 Bombay Work",
    "code": 487642,
    "latitude": -29.9531,
    "location": "POINT (30.97033 -29.953146)",
    "longitude": 30.97033,
    "name": "kz Merebank Clinic",
    "province": "KwaZulu-Natal",
    "short_name": "Merebank Clinic"
   }
  },
  {
    "model": "clinicfinder.location",
    "fields":{
    "address": null,
    "code": 749442,
    "latitude": -28.7153,
    "location": "POINT (30.806718 -28.715329)",
    "longitude": 30.806718,
    "name": "kz Mfongosi Clinic",
    "province": "KwaZulu-Natal",
    "short_name": "Mfongosi Clinic"
   }
  },
  {
    "model": "clinicfinder.location",
    "fields":{
    "address": "Private Bag 4373, Mfume",
    "code": 848615,
    "latitude": -30.1198,
    "location": "POINT (30.744037 -30.119861)",
    "longitude": 30.744037,
    "name": "kz Mfume Clinic",
    "province": "KwaZulu-Natal",
    "short_name": "Mfume Clinic"
   }
  },
  {
    "model": "clinicfinder.location",
    "fields":{
    "address": null,
    "code": 381515,
    "latitude": -30.2367,
    "location": "POINT (30.3817 -30.236716)",
    "longitude": 30.3817,
    "name": "kz Mgangeni Clinic",
    "province": "KwaZulu-Natal",
    "short_name": "Mgangeni Clinic"
   }
  },
  {
    "model": "clinicfinder.location",
    "fields":{
    "address": "Mzinto North",
    "code": 276442,
    "latitude": -30.3842,
    "location": "POINT (30.476674 -30.384276)",
    "longitude": 30.476674,
    "name": "kz Mgayi Clinic",
    "province": "KwaZulu-Natal",
    "short_name": "Mgayi Clinic"
   }
  },
  {
    "model": "clinicfinder.location",
    "fields":{
    "address": "Tugela Ferry Road",
    "code": 837251,
    "latitude": -28.8366,
    "location": "POINT (30.301533 -28.836677)",
    "longitude": 30.301533,
    "name": "kz Mhlangana Clinic",
    "province": "KwaZulu-Natal",
    "short_name": "Mhlangana Clinic"
   }
  },
  {
    "model": "clinicfinder.location",
    "fields":{
    "address": null,
    "code": 948324,
    "latitude": -27.7054,
    "location": "POINT (32.146609 -27.705446)",
    "longitude": 32.146609,
    "name": "kz Mhlekazi Clinic",
    "province": "KwaZulu-Natal",
    "short_name": "Mhlekazi Clinic"
   }
  },
  {
    "model": "clinicfinder.location",
    "fields":{
    "address": "Odudela Road",
    "code": 902533,
    "latitude": -28.1383,
    "location": "POINT (30.83729 -28.13831)",
    "longitude": 30.83729,
    "name": "kz Mhlungwane Clinic",
    "province": "KwaZulu-Natal",
    "short_name": "Mhlungwane Clinic"
   }
  },
  {
    "model": "clinicfinder.location",
    "fields":{
    "address": "Mkhonjane Area",
    "code": 631724,
    "latitude": -28.1502,
    "location": "POINT (30.577079 -28.150214)",
    "longitude": 30.577079,
    "name": "kz Mkhonjane Clinic",
    "province": "KwaZulu-Natal",
    "short_name": "Mkhonjane Clinic"
   }
  },
  {
    "model": "clinicfinder.location",
    "fields":{
    "address": "Othame Area",
    "code": 667660,
    "latitude": -28.7952,
    "location": "POINT (30.570278 -28.795222)",
    "longitude": 30.570278,
    "name": "kz Mkhuphula Clinic",
    "province": "KwaZulu-Natal",
    "short_name": "Mkhuphula Clinic"
   }
  },
  {
    "model": "clinicfinder.location",
    "fields":{
    "address": "Klbe Road",
    "code": 503060,
    "latitude": -27.6185,
    "location": "POINT (32.03188 -27.618546)",
    "longitude": 32.03188,
    "name": "kz Mkuze Clinic",
    "province": "KwaZulu-Natal",
    "short_name": "Mkuze Clinic"
   }
  },
  {
    "model": "clinicfinder.location",
    "fields":{
    "address": "Utrecht Road",
    "code": 245451,
    "latitude": -27.7473,
    "location": "POINT (30.190804 -27.747374)",
    "longitude": 30.190804,
    "name": "kz Mndozo Clinic",
    "province": "KwaZulu-Natal",
    "short_name": "Mndozo Clinic"
   }
  },
  {
    "model": "clinicfinder.location",
    "fields":{
    "address": "22",
    "code": 844751,
    "latitude": -27.7059,
    "location": "POINT (32.455985 -27.705903)",
    "longitude": 32.455985,
    "name": "kz Mnqobokazi Clinic",
    "province": "KwaZulu-Natal",
    "short_name": "Mnqobokazi Clinic"
   }
  },
  {
    "model": "clinicfinder.location",
    "fields":{
    "address": null,
    "code": 889751,
    "latitude": -30.1462,
    "location": "POINT (30.305666 -30.146233)",
    "longitude": 30.305666,
    "name": "kz Mntungwana Clinic",
    "province": "KwaZulu-Natal",
    "short_name": "Mntungwana Clinic"
   }
  },
  {
    "model": "clinicfinder.location",
    "fields":{
    "address": "Mwolokohlo",
    "code": 524124,
    "latitude": -29.4896,
    "location": "POINT (31.03685 -29.48962)",
    "longitude": 31.03685,
    "name": "kz Molokohlo Clinic",
    "province": "KwaZulu-Natal",
    "short_name": "Molokohlo Clinic"
   }
  },
  {
    "model": "clinicfinder.location",
    "fields":{
    "address": "Inanda Road",
    "code": 523360,
    "latitude": -29.7397,
    "location": "POINT (30.878616 -29.739727)",
    "longitude": 30.878616,
    "name": "kz Molweni Clinic",
    "province": "KwaZulu-Natal",
    "short_name": "Molweni Clinic"
   }
  },
  {
    "model": "clinicfinder.location",
    "fields":{
    "address": "Mondlo 2",
    "code": 860906,
    "latitude": -27.9764,
    "location": "POINT (30.709556 -27.976404)",
    "longitude": 30.709556,
    "name": "kz Mondlo 2 Clinic",
    "province": "KwaZulu-Natal",
    "short_name": "Mondlo 2 Clinic"
   }
  },
  {
    "model": "clinicfinder.location",
    "fields":{
    "address": null,
    "code": 365551,
    "latitude": -29.4394,
    "location": "POINT (30.807162 -29.43948)",
    "longitude": 30.807162,
    "name": "kz Montebello Gateway Clinic",
    "province": "KwaZulu-Natal",
    "short_name": "Montebello Gateway"
   }
  },
  {
    "model": "clinicfinder.location",
    "fields":{
    "address": "46 Lawrence Road",
    "code": 650624,
    "latitude": -29.2074,
    "location": "POINT (29.996047 -29.20743)",
    "longitude": 29.996047,
    "name": "kz Mooi River Clinic",
    "province": "KwaZulu-Natal",
    "short_name": "Mooi River Clinic"
   }
  },
  {
    "model": "clinicfinder.location",
    "fields":{
    "address": "Morrison Street",
    "code": 704751,
    "latitude": -30.5658,
    "location": "POINT (30.421727 -30.56581)",
    "longitude": 30.421727,
    "name": "kz Morrison's Post Clinic",
    "province": "KwaZulu-Natal",
    "short_name": "Morrison's Post Clinic"
   }
  },
  {
    "model": "clinicfinder.location",
    "fields":{
    "address": "Main Road, Ingwavuma, 3968",
    "code": 548024,
    "latitude": -27.1383,
    "location": "POINT (32.004746 -27.138374)",
    "longitude": 32.004746,
    "name": "kz Mosvold Gateway Clinic",
    "province": "KwaZulu-Natal",
    "short_name": "Mosvold Gateway"
   }
  },
  {
    "model": "clinicfinder.location",
    "fields":{
    "address": "Dlangubo Lane",
    "code": 885424,
    "latitude": -28.6197,
    "location": "POINT (31.09231 -28.6197)",
    "longitude": 31.09231,
    "name": "kz Mpandleni Clinic",
    "province": "KwaZulu-Natal",
    "short_name": "Mpandleni Clinic"
   }
  },
  {
    "model": "clinicfinder.location",
    "fields":{
    "address": "Private Bag, X5001, Mpembeni Clinic, Hlabisa",
    "code": 461706,
    "latitude": -28.1323,
    "location": "POINT (31.94133 -28.132306)",
    "longitude": 31.94133,
    "name": "kz Mpembeni Clinic",
    "province": "KwaZulu-Natal",
    "short_name": "Mpembeni Clinic"
   }
  },
  {
    "model": "clinicfinder.location",
    "fields":{
    "address": null,
    "code": 868242,
    "latitude": -29.1046,
    "location": "POINT (31.10166 -29.10466)",
    "longitude": 31.10166,
    "name": "kz Mphise Clinic",
    "province": "KwaZulu-Natal",
    "short_name": "Mphise Clinic"
   }
  },
  {
    "model": "clinicfinder.location",
    "fields":{
    "address": "Off Milky Way, Mpola",
    "code": 277051,
    "latitude": -29.8536,
    "location": "POINT (30.810461 -29.85363)",
    "longitude": 30.810461,
    "name": "kz Mpola Clinic",
    "province": "KwaZulu-Natal",
    "short_name": "Mpola Clinic"
   }
  },
  {
    "model": "clinicfinder.location",
    "fields":{
    "address": "2692 Mtholampilo Road",
    "code": 830151,
    "latitude": -29.5652,
    "location": "POINT (30.17552 -29.56525)",
    "longitude": 30.17552,
    "name": "kz Mpophomeni Clinic",
    "province": "KwaZulu-Natal",
    "short_name": "Mpophomeni Clinic"
   }
  },
  {
    "model": "clinicfinder.location",
    "fields":{
    "address": "Mpukunyoni Area",
    "code": 663560,
    "latitude": -28.3673,
    "location": "POINT (32.174266 -28.367383)",
    "longitude": 32.174266,
    "name": "kz Mpukunyoni Clinic",
    "province": "KwaZulu-Natal",
    "short_name": "Mpukunyoni Clinic"
   }
  },
  {
    "model": "clinicfinder.location",
    "fields":{
    "address": "Meyiwa Main Road",
    "code": 262642,
    "latitude": -29.8038,
    "location": "POINT (30.620925 -29.803844)",
    "longitude": 30.620925,
    "name": "kz Mpumalanga Clinic",
    "province": "KwaZulu-Natal",
    "short_name": "Mpumalanga Clinic"
   }
  },
  {
    "model": "clinicfinder.location",
    "fields":{
    "address": "Doesbag Road",
    "code": 757351,
    "latitude": -29.1918,
    "location": "POINT (31.29159 -29.19186)",
    "longitude": 31.29159,
    "name": "kz Mpumelelo Clinic",
    "province": "KwaZulu-Natal",
    "short_name": "Mpumelelo Clinic"
   }
  },
  {
    "model": "clinicfinder.location",
    "fields":{
    "address": "Mabane Area, Sweetwater",
    "code": 868715,
    "latitude": -29.6059,
    "location": "POINT (30.27101 -29.605986)",
    "longitude": 30.27101,
    "name": "kz Mpumuza Clinic",
    "province": "KwaZulu-Natal",
    "short_name": "Mpumuza Clinic"
   }
  },
  {
    "model": "clinicfinder.location",
    "fields":{
    "address": "Mpungamhlophe",
    "code": 497642,
    "latitude": -28.266,
    "location": "POINT (31.253772 -28.266024)",
    "longitude": 31.253772,
    "name": "kz Mpungamhlophe Clinic",
    "province": "KwaZulu-Natal",
    "short_name": "Mpungamhlophe Clinic"
   }
  },
  {
    "model": "clinicfinder.location",
    "fields":{
    "address": null,
    "code": 316615,
    "latitude": -27.3256,
    "location": "POINT (32.556644 -27.325663)",
    "longitude": 32.556644,
    "name": "kz Mseleni Gateway Clinic",
    "province": "KwaZulu-Natal",
    "short_name": "Mseleni Gateway"
   }
  },
  {
    "model": "clinicfinder.location",
    "fields":{
    "address": "Mshudu Area, Kwangwanase",
    "code": 388624,
    "latitude": -26.9322,
    "location": "POINT (32.718289 -26.932224)",
    "longitude": 32.718289,
    "name": "kz Mshudu Clinic",
    "province": "KwaZulu-Natal",
    "short_name": "Mshudu Clinic"
   }
  },
  {
    "model": "clinicfinder.location",
    "fields":{
    "address": "Othame Area",
    "code": 274533,
    "latitude": -28.7521,
    "location": "POINT (30.54825 -28.752167)",
    "longitude": 30.54825,
    "name": "kz Msizini Clinic",
    "province": "KwaZulu-Natal",
    "short_name": "Msizini Clinic"
   }
  },
  {
    "model": "clinicfinder.location",
    "fields":{
    "address": "9 Magayisa Road",
    "code": 986624,
    "latitude": -29.663,
    "location": "POINT (30.636633 -29.663008)",
    "longitude": 30.636633,
    "name": "kz Msunduze Bridge Clinic",
    "province": "KwaZulu-Natal",
    "short_name": "Msunduze Bridge Clinic"
   }
  },
  {
    "model": "clinicfinder.location",
    "fields":{
    "address": "Khabane Area",
    "code": 218433,
    "latitude": -29.2593,
    "location": "POINT (31.0778 -29.25931)",
    "longitude": 31.0778,
    "name": "kz Mthandeni Clinic",
    "province": "KwaZulu-Natal",
    "short_name": "Mthandeni Clinic"
   }
  },
  {
    "model": "clinicfinder.location",
    "fields":{
    "address": null,
    "code": 343151,
    "latitude": -30.7974,
    "location": "POINT (30.041521 -30.797448)",
    "longitude": 30.041521,
    "name": "kz Mthimude Clinic",
    "province": "KwaZulu-Natal",
    "short_name": "Mthimude Clinic"
   }
  },
  {
    "model": "clinicfinder.location",
    "fields":{
    "address": "Mamba Area",
    "code": 712124,
    "latitude": -28.8111,
    "location": "POINT (31.053824 -28.811162)",
    "longitude": 31.053824,
    "name": "kz Mthungweni Clinic",
    "province": "KwaZulu-Natal",
    "short_name": "Mthungweni Clinic"
   }
  },
  {
    "model": "clinicfinder.location",
    "fields":{
    "address": "Lot 379 John Ross, Highway, Mtubatuba",
    "code": 825151,
    "latitude": -28.4112,
    "location": "POINT (32.185255 -28.411233)",
    "longitude": 32.185255,
    "name": "kz Mtubatuba Clinic",
    "province": "KwaZulu-Natal",
    "short_name": "Mtubatuba Clinic"
   }
  },
  {
    "model": "clinicfinder.location",
    "fields":{
    "address": null,
    "code": 472251,
    "latitude": -28.7689,
    "location": "POINT (30.272611 -28.768944)",
    "longitude": 30.272611,
    "name": "kz Muden Clinic",
    "province": "KwaZulu-Natal",
    "short_name": "Muden Clinic"
   }
  },
  {
    "model": "clinicfinder.location",
    "fields":{
    "address": null,
    "code": 960142,
    "latitude": -28.7398,
    "location": "POINT (30.552592 -28.739817)",
    "longitude": 30.552592,
    "name": "kz Mumbe Clinic",
    "province": "KwaZulu-Natal",
    "short_name": "Mumbe Clinic"
   }
  },
  {
    "model": "clinicfinder.location",
    "fields":{
    "address": "Velabusha Area",
    "code": 562215,
    "latitude": -27.1591,
    "location": "POINT (32.713211 -27.159184)",
    "longitude": 32.713211,
    "name": "kz Mvelabusha Clinic",
    "province": "KwaZulu-Natal",
    "short_name": "Mvelabusha Clinic"
   }
  },
  {
    "model": "clinicfinder.location",
    "fields":{
    "address": "Nazareth A/A",
    "code": 141951,
    "latitude": -30.1153,
    "location": "POINT (29.52058 -30.11531)",
    "longitude": 29.52058,
    "name": "kz Mvoti Clinic",
    "province": "KwaZulu-Natal",
    "short_name": "Mvoti Clinic"
   }
  },
  {
    "model": "clinicfinder.location",
    "fields":{
    "address": "Bhala",
    "code": 251333,
    "latitude": -30.2603,
    "location": "POINT (29.88225 -30.26032)",
    "longitude": 29.88225,
    "name": "kz Mvubukazi Clinic",
    "province": "KwaZulu-Natal",
    "short_name": "Mvubukazi Clinic"
   }
  },
  {
    "model": "clinicfinder.location",
    "fields":{
    "address": "Mvutshini Area",
    "code": 987315,
    "latitude": -30.8601,
    "location": "POINT (30.371666 -30.86013)",
    "longitude": 30.371666,
    "name": "kz Mvutshini Clinic (Hibiscus Coast)",
    "province": "KwaZulu-Natal",
    "short_name": "Mvutshini Clinic (HC)"
   }
  },
  {
    "model": "clinicfinder.location",
    "fields":{
    "address": "Cnr Main and St Wendolins Road",
    "code": 956833,
    "latitude": -29.8723,
    "location": "POINT (30.829856 -29.872369)",
    "longitude": 30.829856,
    "name": "kz Mzamo Clinic",
    "province": "KwaZulu-Natal",
    "short_name": "Mzamo Clinic"
   }
  },
  {
    "model": "clinicfinder.location",
    "fields":{
    "address": "Mahalaba Stand",
    "code": 661251,
    "latitude": -27.8276,
    "location": "POINT (30.225876 -27.827656)",
    "longitude": 30.225876,
    "name": "kz Naas Farm Clinic",
    "province": "KwaZulu-Natal",
    "short_name": "Naas Farm Clinic"
   }
  },
  {
    "model": "clinicfinder.location",
    "fields":{
    "address": "1 Soni Way",
    "code": 241451,
    "latitude": -29.8702,
    "location": "POINT (30.812337 -29.870295)",
    "longitude": 30.812337,
    "name": "kz Nagina Clinic",
    "province": "KwaZulu-Natal",
    "short_name": "Nagina Clinic"
   }
  },
  {
    "model": "clinicfinder.location",
    "fields":{
    "address": "Lindelani Township",
    "code": 721742,
    "latitude": -29.3196,
    "location": "POINT (31.30295 -29.31964)",
    "longitude": 31.30295,
    "name": "kz Nandi Clinic",
    "province": "KwaZulu-Natal",
    "short_name": "Nandi Clinic"
   }
  },
  {
    "model": "clinicfinder.location",
    "fields":{
    "address": null,
    "code": 706024,
    "latitude": -29.8428,
    "location": "POINT (30.856927 -29.842856)",
    "longitude": 30.856927,
    "name": "kz Nazareth Clinic",
    "province": "KwaZulu-Natal",
    "short_name": "Nazareth Clinic"
   }
  },
  {
    "model": "clinicfinder.location",
    "fields":{
    "address": "Maroeni Area Next To Azonke High School",
    "code": 232006,
    "latitude": -28.336,
    "location": "POINT (31.666006 -28.336011)",
    "longitude": 31.666006,
    "name": "kz Ncemaneni Clinic",
    "province": "KwaZulu-Natal",
    "short_name": "Ncemaneni Clinic"
   }
  },
  {
    "model": "clinicfinder.location",
    "fields":{
    "address": null,
    "code": 755760,
    "latitude": -29.1874,
    "location": "POINT (29.636774 -29.187404)",
    "longitude": 29.636774,
    "name": "kz Ncibidwane Clinic",
    "province": "KwaZulu-Natal",
    "short_name": "Ncibidwane Clinic"
   }
  },
  {
    "model": "clinicfinder.location",
    "fields":{
    "address": "Mzilankatha",
    "code": 647642,
    "latitude": -27.3474,
    "location": "POINT (31.578386 -27.347427)",
    "longitude": 31.578386,
    "name": "kz Ncotshane Clinic",
    "province": "KwaZulu-Natal",
    "short_name": "Ncotshane Clinic"
   }
  },
  {
    "model": "clinicfinder.location",
    "fields":{
    "address": null,
    "code": 292215,
    "latitude": -29.776699999999998,
    "location": "POINT (29.985336 -29.776746)",
    "longitude": 29.985336,
    "name": "kz Ncwadi Clinic",
    "province": "KwaZulu-Natal",
    "short_name": "Ncwadi Clinic"
   }
  },
  {
    "model": "clinicfinder.location",
    "fields":{
    "address": "Ngomankulu",
    "code": 897706,
    "latitude": -28.7524,
    "location": "POINT (31.068621 -28.752452)",
    "longitude": 31.068621,
    "name": "kz Ndabaningi Clinic",
    "province": "KwaZulu-Natal",
    "short_name": "Ndabaningi Clinic"
   }
  },
  {
    "model": "clinicfinder.location",
    "fields":{
    "address": "Ndaleni",
    "code": 821415,
    "latitude": -29.8866,
    "location": "POINT (30.246868 -29.886656)",
    "longitude": 30.246868,
    "name": "kz Ndaleni Clinic",
    "province": "KwaZulu-Natal",
    "short_name": "Ndaleni Clinic"
   }
  },
  {
    "model": "clinicfinder.location",
    "fields":{
    "address": null,
    "code": 516315,
    "latitude": -30.352,
    "location": "POINT (29.711 -30.352)",
    "longitude": 29.711,
    "name": "kz Ndawana Clinic",
    "province": "KwaZulu-Natal",
    "short_name": "Ndawana Clinic"
   }
  },
  {
    "model": "clinicfinder.location",
    "fields":{
    "address": "Sipho Road",
    "code": 554251,
    "latitude": -30.4991,
    "location": "POINT (30.432652 -30.499144)",
    "longitude": 30.432652,
    "name": "kz Ndelu Clinic",
    "province": "KwaZulu-Natal",
    "short_name": "Ndelu Clinic"
   }
  },
  {
    "model": "clinicfinder.location",
    "fields":{
    "address": "P230 Old Road",
    "code": 544451,
    "latitude": -28.766,
    "location": "POINT (31.697752 -28.766043)",
    "longitude": 31.697752,
    "name": "kz Ndlangubo Clinic",
    "province": "KwaZulu-Natal",
    "short_name": "Ndlangubo Clinic"
   }
  },
  {
    "model": "clinicfinder.location",
    "fields":{
    "address": null,
    "code": 113751,
    "latitude": -28.1333,
    "location": "POINT (31.757639 -28.133347)",
    "longitude": 31.757639,
    "name": "kz Ndlozana Clinic",
    "province": "KwaZulu-Natal",
    "short_name": "Ndlozana Clinic"
   }
  },
  {
    "model": "clinicfinder.location",
    "fields":{
    "address": null,
    "code": 276633,
    "latitude": -29.0443,
    "location": "POINT (31.4318 -29.04438)",
    "longitude": 31.4318,
    "name": "kz Ndulinde Clinic",
    "province": "KwaZulu-Natal",
    "short_name": "Ndulinde Clinic"
   }
  },
  {
    "model": "clinicfinder.location",
    "fields":{
    "address": "Ndumo Main Road",
    "code": 828133,
    "latitude": -26.925,
    "location": "POINT (32.251492 -26.925099)",
    "longitude": 32.251492,
    "name": "kz Ndumo Clinic",
    "province": "KwaZulu-Natal",
    "short_name": "Ndumo Clinic"
   }
  },
  {
    "model": "clinicfinder.location",
    "fields":{
    "address": "Melmoth Road",
    "code": 274833,
    "latitude": -28.6794,
    "location": "POINT (31.510509 -28.679411)",
    "longitude": 31.510509,
    "name": "kz Ndundulu Clinic",
    "province": "KwaZulu-Natal",
    "short_name": "Ndundulu Clinic"
   }
  },
  {
    "model": "clinicfinder.location",
    "fields":{
    "address": "D168 Via St Faiths",
    "code": 353451,
    "latitude": -30.4178,
    "location": "POINT (30.202402 -30.417894)",
    "longitude": 30.202402,
    "name": "kz Ndwebu Clinic",
    "province": "KwaZulu-Natal",
    "short_name": "Ndwebu Clinic"
   }
  },
  {
    "model": "clinicfinder.location",
    "fields":{
    "address": "P 100 Caneland",
    "code": 562442,
    "latitude": -29.5105,
    "location": "POINT (30.93717 -29.51058)",
    "longitude": 30.93717,
    "name": "kz Ndwedwe CHC",
    "province": "KwaZulu-Natal",
    "short_name": "Ndwedwe CHC"
   }
  },
  {
    "model": "clinicfinder.location",
    "fields":{
    "address": "Thusi Stand",
    "code": 471715,
    "latitude": -27.927,
    "location": "POINT (30.168372 -27.927005)",
    "longitude": 30.168372,
    "name": "kz Nellies Farm Clinic",
    "province": "KwaZulu-Natal",
    "short_name": "Nellies Farm Clinic"
   }
  },
  {
    "model": "clinicfinder.location",
    "fields":{
    "address": "2 Coventry Avenue",
    "code": 312724,
    "latitude": -29.7979,
    "location": "POINT (30.876009 -29.79794)",
    "longitude": 30.876009,
    "name": "kz New Germany Clinic",
    "province": "KwaZulu-Natal",
    "short_name": "New Germany Clinic"
   }
  },
  {
    "model": "clinicfinder.location",
    "fields":{
    "address": "Cnr Murchison and Sutherland Street",
    "code": 678124,
    "latitude": -27.7568,
    "location": "POINT (29.930139 -27.756889)",
    "longitude": 29.930139,
    "name": "kz Newcastle PHC Clinic",
    "province": "KwaZulu-Natal",
    "short_name": "Newcastle PHC Clinic"
   }
  },
  {
    "model": "clinicfinder.location",
    "fields":{
    "address": "16 Loopwest Crescent",
    "code": 214215,
    "latitude": -29.7792,
    "location": "POINT (30.954377 -29.779259)",
    "longitude": 30.954377,
    "name": "kz Newlands West Clinic",
    "province": "KwaZulu-Natal",
    "short_name": "Newlands West Clinic"
   }
  },
  {
    "model": "clinicfinder.location",
    "fields":{
    "address": "King Bhekuzulu",
    "code": 726433,
    "latitude": -29.7119,
    "location": "POINT (30.941956 -29.711998)",
    "longitude": 30.941956,
    "name": "kz Newtown A CHC",
    "province": "KwaZulu-Natal",
    "short_name": "Newtown A CHC"
   }
  },
  {
    "model": "clinicfinder.location",
    "fields":{
    "address": null,
    "code": 908606,
    "latitude": -29.5775,
    "location": "POINT (30.647525 -29.577513)",
    "longitude": 30.647525,
    "name": "kz Ngabayena Clinic",
    "province": "KwaZulu-Natal",
    "short_name": "Ngabayena Clinic"
   }
  },
  {
    "model": "clinicfinder.location",
    "fields":{
    "address": "Mangohlopha Reserve, Nongoma",
    "code": 683442,
    "latitude": -27.8752,
    "location": "POINT (31.594481 -27.875285)",
    "longitude": 31.594481000000002,
    "name": "kz Ngqeku Clinic",
    "province": "KwaZulu-Natal",
    "short_name": "Ngqeku Clinic"
   }
  },
  {
    "model": "clinicfinder.location",
    "fields":{
    "address": "Ngubeni Area",
    "code": 615424,
    "latitude": -29.697,
    "location": "POINT (30.233237 -29.697089)",
    "longitude": 30.233237,
    "name": "kz Ngubeni Clinic",
    "province": "KwaZulu-Natal",
    "short_name": "Ngubeni Clinic"
   }
  },
  {
    "model": "clinicfinder.location",
    "fields":{
    "address": "P17 Inadi Road, Greytown",
    "code": 307342,
    "latitude": -28.7404,
    "location": "POINT (30.62022 -28.74047)",
    "longitude": 30.62022,
    "name": "kz Ngubevu Clinic",
    "province": "KwaZulu-Natal",
    "short_name": "Ngubevu Clinic"
   }
  },
  {
    "model": "clinicfinder.location",
    "fields":{
    "address": null,
    "code": 523160,
    "latitude": -29.0546,
    "location": "POINT (31.24977 -29.0546)",
    "longitude": 31.24977,
    "name": "kz Ngudwini Clinic",
    "province": "KwaZulu-Natal",
    "short_name": "Ngudwini Clinic"
   }
  },
  {
    "model": "clinicfinder.location",
    "fields":{
    "address": "1225 Tholimpilo Road, Ngwelezana A, Empangeni, 3880",
    "code": 211642,
    "latitude": -28.7739,
    "location": "POINT (31.861725 -28.773977)",
    "longitude": 31.861725,
    "name": "kz Ngwelezana Clinic",
    "province": "KwaZulu-Natal",
    "short_name": "Ngwelezana Clinic"
   }
  },
  {
    "model": "clinicfinder.location",
    "fields":{
    "address": "Mlabane",
    "code": 199115,
    "latitude": -28.6416,
    "location": "POINT (32.238873 -28.641666)",
    "longitude": 32.238873,
    "name": "kz Nhlabane Clinic",
    "province": "KwaZulu-Natal",
    "short_name": "Nhlabane Clinic"
   }
  },
  {
    "model": "clinicfinder.location",
    "fields":{
    "address": "D928 Road",
    "code": 254215,
    "latitude": -30.4565,
    "location": "POINT (30.085123 -30.456526)",
    "longitude": 30.085123,
    "name": "kz Nhlalwane Clinic",
    "province": "KwaZulu-Natal",
    "short_name": "Nhlalwane Clinic"
   }
  },
  {
    "model": "clinicfinder.location",
    "fields":{
    "address": null,
    "code": 746042,
    "latitude": -27.958,
    "location": "POINT (31.688 -27.958)",
    "longitude": 31.688,
    "name": "kz Nhlekiseni Clinic",
    "province": "KwaZulu-Natal",
    "short_name": "Nhlekiseni Clinic"
   }
  },
  {
    "model": "clinicfinder.location",
    "fields":{
    "address": null,
    "code": 286624,
    "latitude": -28.309,
    "location": "POINT (30.976 -28.309)",
    "longitude": 30.976,
    "name": "kz Nhlopheni Clinic",
    "province": "KwaZulu-Natal",
    "short_name": "Nhlopheni Clinic"
   }
  },
  {
    "model": "clinicfinder.location",
    "fields":{
    "address": null,
    "code": 884615,
    "latitude": -28.3069,
    "location": "POINT (31.501942 -28.306915)",
    "longitude": 31.501942,
    "name": "kz Nhlungwana Clinic",
    "province": "KwaZulu-Natal",
    "short_name": "Nhlungwana Clinic"
   }
  },
  {
    "model": "clinicfinder.location",
    "fields":{
    "address": "28 Kantoor Street",
    "code": 337851,
    "latitude": -27.6519,
    "location": "POINT (30.0712 -27.651978)",
    "longitude": 30.0712,
    "name": "kz Niemeyer Gateway Clinic",
    "province": "KwaZulu-Natal",
    "short_name": "Niemeyer Gateway"
   }
  },
  {
    "model": "clinicfinder.location",
    "fields":{
    "address": "Njoko Area",
    "code": 611233,
    "latitude": -27.8085,
    "location": "POINT (31.853306 -27.808595)",
    "longitude": 31.853306,
    "name": "kz Njoko Clinic",
    "province": "KwaZulu-Natal",
    "short_name": "Njoko Clinic"
   }
  },
  {
    "model": "clinicfinder.location",
    "fields":{
    "address": "Nkande",
    "code": 845833,
    "latitude": -27.9929,
    "location": "POINT (30.624024 -27.992954)",
    "longitude": 30.624024,
    "name": "kz Nkande Clinic",
    "province": "KwaZulu-Natal",
    "short_name": "Nkande Clinic"
   }
  },
  {
    "model": "clinicfinder.location",
    "fields":{
    "address": null,
    "code": 618233,
    "latitude": -28.2266,
    "location": "POINT (31.415167 -28.226641)",
    "longitude": 31.415167,
    "name": "kz Nkonjeni Gateway Clinic",
    "province": "KwaZulu-Natal",
    "short_name": "Nkonjeni Gateway"
   }
  },
  {
    "model": "clinicfinder.location",
    "fields":{
    "address": null,
    "code": 556842,
    "latitude": -28.146,
    "location": "POINT (32.319806 -28.146074)",
    "longitude": 32.319806,
    "name": "kz Nkundusi Clinic",
    "province": "KwaZulu-Natal",
    "short_name": "Nkundusi Clinic"
   }
  },
  {
    "model": "clinicfinder.location",
    "fields":{
    "address": null,
    "code": 145360,
    "latitude": -27.0098,
    "location": "POINT (32.008758 -27.00989)",
    "longitude": 32.008758,
    "name": "kz Nkungwini Clinic",
    "province": "KwaZulu-Natal",
    "short_name": "Nkungwini Clinic"
   }
  },
  {
    "model": "clinicfinder.location",
    "fields":{
    "address": "Nongoma",
    "code": 843542,
    "latitude": -27.7398,
    "location": "POINT (31.706355 -27.739848)",
    "longitude": 31.706355,
    "name": "kz Nkunzana Clinic",
    "province": "KwaZulu-Natal",
    "short_name": "Nkunzana Clinic"
   }
  },
  {
    "model": "clinicfinder.location",
    "fields":{
    "address": "Illovo, Kingsburgh, 4126",
    "code": 849342,
    "latitude": -30.1019,
    "location": "POINT (30.798179 -30.101997)",
    "longitude": 30.798179,
    "name": "kz Nkwali Clinic",
    "province": "KwaZulu-Natal",
    "short_name": "Nkwali Clinic"
   }
  },
  {
    "model": "clinicfinder.location",
    "fields":{
    "address": "R66 Nkwalini",
    "code": 418633,
    "latitude": -28.7261,
    "location": "POINT (31.525151 -28.726177)",
    "longitude": 31.525151,
    "name": "kz Nkwalini Clinic",
    "province": "KwaZulu-Natal",
    "short_name": "Nkwalini Clinic"
   }
  },
  {
    "model": "clinicfinder.location",
    "fields":{
    "address": null,
    "code": 283624,
    "latitude": -28.668,
    "location": "POINT (30.622273 -28.668079)",
    "longitude": 30.622273,
    "name": "kz Nocomboshe Clinic",
    "province": "KwaZulu-Natal",
    "short_name": "Nocomboshe Clinic"
   }
  },
  {
    "model": "clinicfinder.location",
    "fields":{
    "address": null,
    "code": 790424,
    "latitude": -28.7081,
    "location": "POINT (31.434139 -28.70811)",
    "longitude": 31.434139,
    "name": "kz Nogajuka Clinic",
    "province": "KwaZulu-Natal",
    "short_name": "Nogajuka Clinic"
   }
  },
  {
    "model": "clinicfinder.location",
    "fields":{
    "address": "Nokweja Area",
    "code": 294360,
    "latitude": -30.2971,
    "location": "POINT (30.020708 -30.297192)",
    "longitude": 30.020708,
    "name": "kz Nokweja Clinic",
    "province": "KwaZulu-Natal",
    "short_name": "Nokweja Clinic"
   }
  },
  {
    "model": "clinicfinder.location",
    "fields":{
    "address": "Nomdiya",
    "code": 297242,
    "latitude": -27.657,
    "location": "POINT (31.192722 -27.657083)",
    "longitude": 31.192722,
    "name": "kz Nomdiya Clinic",
    "province": "KwaZulu-Natal",
    "short_name": "Nomdiya Clinic"
   }
  },
  {
    "model": "clinicfinder.location",
    "fields":{
    "address": "Nomponjwana",
    "code": 395015,
    "latitude": -28.638,
    "location": "POINT (31.57919 -28.63808)",
    "longitude": 31.57919,
    "name": "kz Nomponjwana Clinic",
    "province": "KwaZulu-Natal",
    "short_name": "Nomponjwana Clinic"
   }
  },
  {
    "model": "clinicfinder.location",
    "fields":{
    "address": "Nondabuya",
    "code": 793806,
    "latitude": -27.3459,
    "location": "POINT (32.155993 -27.345922)",
    "longitude": 32.155993,
    "name": "kz Nondabuya Clinic",
    "province": "KwaZulu-Natal",
    "short_name": "Nondabuya Clinic"
   }
  },
  {
    "model": "clinicfinder.location",
    "fields":{
    "address": null,
    "code": 415415,
    "latitude": -28.1946,
    "location": "POINT (30.81733 -28.194687)",
    "longitude": 30.81733,
    "name": "kz Nondweni Clinic",
    "province": "KwaZulu-Natal",
    "short_name": "Nondweni Clinic"
   }
  },
  {
    "model": "clinicfinder.location",
    "fields":{
    "address": "Hlekezela Street",
    "code": 704315,
    "latitude": -28.4287,
    "location": "POINT (30.923282 -28.428799)",
    "longitude": 30.923282,
    "name": "kz Nongamlane Clinic",
    "province": "KwaZulu-Natal",
    "short_name": "Nongamlane Clinic"
   }
  },
  {
    "model": "clinicfinder.location",
    "fields":{
    "address": "67 Bangalore Road, Northdale, Pietermaritzburg, 3201",
    "code": 688724,
    "latitude": -29.5664,
    "location": "POINT (30.402176 -29.566447)",
    "longitude": 30.402176,
    "name": "kz Northdale Clinic",
    "province": "KwaZulu-Natal",
    "short_name": "Northdale Clinic"
   }
  },
  {
    "model": "clinicfinder.location",
    "fields":{
    "address": "1389 Chota Motala Road",
    "code": 723624,
    "latitude": -29.5664,
    "location": "POINT (30.402176 -29.566447)",
    "longitude": 30.402176,
    "name": "kz Northdale Gateway Clinic",
    "province": "KwaZulu-Natal",
    "short_name": "Northdale Gateway"
   }
  },
  {
    "model": "clinicfinder.location",
    "fields":{
    "address": "Suite 645, Ubhejane Road, Nseleni Township",
    "code": 387724,
    "latitude": -28.6662,
    "location": "POINT (32.025791 -28.666242)",
    "longitude": 32.025791,
    "name": "kz Nseleni CHC",
    "province": "KwaZulu-Natal",
    "short_name": "Nseleni CHC"
   }
  },
  {
    "model": "clinicfinder.location",
    "fields":{
    "address": "2483 Old Umbumbulu Road",
    "code": 201442,
    "latitude": -30.0004,
    "location": "POINT (30.855958 -30.000426)",
    "longitude": 30.855958,
    "name": "kz Nsimbini Clinic",
    "province": "KwaZulu-Natal",
    "short_name": "Nsimbini Clinic"
   }
  },
  {
    "model": "clinicfinder.location",
    "fields":{
    "address": "Hlahlindela",
    "code": 346860,
    "latitude": -28.0384,
    "location": "POINT (30.715102 -28.038496)",
    "longitude": 30.715102,
    "name": "kz Ntababomvu Clinic",
    "province": "KwaZulu-Natal",
    "short_name": "Ntababomvu Clinic"
   }
  },
  {
    "model": "clinicfinder.location",
    "fields":{
    "address": "Sobabili Road, Ntabamhlophe Area",
    "code": 142215,
    "latitude": -29.1038,
    "location": "POINT (29.68856 -29.103857)",
    "longitude": 29.68856,
    "name": "kz Ntabamhlope Clinic",
    "province": "KwaZulu-Natal",
    "short_name": "Ntabamhlope Clinic"
   }
  },
  {
    "model": "clinicfinder.location",
    "fields":{
    "address": "Ezingolweni Road, Ward 10",
    "code": 853051,
    "latitude": -30.9716,
    "location": "POINT (30.235461 -30.97163)",
    "longitude": 30.235461,
    "name": "kz Ntabeni Clinic",
    "province": "KwaZulu-Natal",
    "short_name": "Ntabeni Clinic"
   }
  },
  {
    "model": "clinicfinder.location",
    "fields":{
    "address": "Ntambanana Road",
    "code": 384933,
    "latitude": -28.5632,
    "location": "POINT (31.853132 -28.563267)",
    "longitude": 31.853132,
    "name": "kz Ntambanana Clinic",
    "province": "KwaZulu-Natal",
    "short_name": "Ntambanana Clinic"
   }
  },
  {
    "model": "clinicfinder.location",
    "fields":{
    "address": null,
    "code": 152251,
    "latitude": -29.7158,
    "location": "POINT (30.249347 -29.7158)",
    "longitude": 30.249347,
    "name": "kz Ntembeni Clinic",
    "province": "KwaZulu-Natal",
    "short_name": "Ntembeni Clinic"
   }
  },
  {
    "model": "clinicfinder.location",
    "fields":{
    "address": "Ntembisweni Road",
    "code": 366506,
    "latitude": -29.165399999999998,
    "location": "POINT (30.76059 -29.165403)",
    "longitude": 30.76059,
    "name": "kz Ntembisweni Clinic",
    "province": "KwaZulu-Natal",
    "short_name": "Ntembisweni Clinic"
   }
  },
  {
    "model": "clinicfinder.location",
    "fields":{
    "address": "Dweshula",
    "code": 555642,
    "latitude": -30.5566,
    "location": "POINT (30.271775 -30.556633)",
    "longitude": 30.271775,
    "name": "kz Ntimbankulu Clinic",
    "province": "KwaZulu-Natal",
    "short_name": "Ntimbankulu Clinic"
   }
  },
  {
    "model": "clinicfinder.location",
    "fields":{
    "address": "Next To Jama Tribal",
    "code": 847233,
    "latitude": -28.2692,
    "location": "POINT (30.897884 -28.269288)",
    "longitude": 30.897884,
    "name": "kz Ntinini Clinic",
    "province": "KwaZulu-Natal",
    "short_name": "Ntinini Clinic"
   }
  },
  {
    "model": "clinicfinder.location",
    "fields":{
    "address": null,
    "code": 946560,
    "latitude": -28.1998,
    "location": "POINT (32.168216 -28.199801)",
    "longitude": 32.168216,
    "name": "kz Ntondweni Clinic",
    "province": "KwaZulu-Natal",
    "short_name": "Ntondweni Clinic"
   }
  },
  {
    "model": "clinicfinder.location",
    "fields":{
    "address": null,
    "code": 473660,
    "latitude": -27.4339,
    "location": "POINT (32.371236 -27.433923)",
    "longitude": 32.371236,
    "name": "kz Ntshongwe Clinic",
    "province": "KwaZulu-Natal",
    "short_name": "Ntshongwe Clinic"
   }
  },
  {
    "model": "clinicfinder.location",
    "fields":{
    "address": "Mbiza Road",
    "code": 422942,
    "latitude": -29.852899999999998,
    "location": "POINT (30.68769 -29.852982)",
    "longitude": 30.68769,
    "name": "kz Ntshongweni Clinic",
    "province": "KwaZulu-Natal",
    "short_name": "Ntshongweni Clinic"
   }
  },
  {
    "model": "clinicfinder.location",
    "fields":{
    "address": null,
    "code": 442433,
    "latitude": -28.8589,
    "location": "POINT (31.322518 -28.858919)",
    "longitude": 31.322518,
    "name": "kz Ntumeni Clinic",
    "province": "KwaZulu-Natal",
    "short_name": "Ntumeni Clinic"
   }
  },
  {
    "model": "clinicfinder.location",
    "fields":{
    "address": null,
    "code": 277924,
    "latitude": -28.8902,
    "location": "POINT (31.740981 -28.890223)",
    "longitude": 31.740981,
    "name": "kz Ntuze Clinic",
    "province": "KwaZulu-Natal",
    "short_name": "Ntuze Clinic"
   }
  },
  {
    "model": "clinicfinder.location",
    "fields":{
    "address": "F 1309 Ncala Road, Ntuzuma",
    "code": 218115,
    "latitude": -29.7281,
    "location": "POINT (30.947125 -29.728156)",
    "longitude": 30.947125,
    "name": "kz Ntuzuma Clinic",
    "province": "KwaZulu-Natal",
    "short_name": "Ntuzuma Clinic"
   }
  },
  {
    "model": "clinicfinder.location",
    "fields":{
    "address": null,
    "code": 250724,
    "latitude": -28.8323,
    "location": "POINT (31.117827 -28.832394)",
    "longitude": 31.117827,
    "name": "kz Nxamalala Clinic (Eshowe)",
    "province": "KwaZulu-Natal",
    "short_name": "Nxamalala Clinic (Esh)"
   }
  },
  {
    "model": "clinicfinder.location",
    "fields":{
    "address": "Izinga Road",
    "code": 464642,
    "latitude": -29.5993,
    "location": "POINT (29.771132 -29.599366)",
    "longitude": 29.771132,
    "name": "kz Nxamalala Clinic (Impendle)",
    "province": "KwaZulu-Natal",
    "short_name": "Nxamalala Clinic (Imp)"
   }
  },
  {
    "model": "clinicfinder.location",
    "fields":{
    "address": null,
    "code": 377551,
    "latitude": -29.6041,
    "location": "POINT (31.015054 -29.604137)",
    "longitude": 31.015054,
    "name": "kz Oakford Clinic",
    "province": "KwaZulu-Natal",
    "short_name": "Oakford Clinic"
   }
  },
  {
    "model": "clinicfinder.location",
    "fields":{
    "address": "Ocilwane Kwamthethwa Area",
    "code": 133706,
    "latitude": -28.4124,
    "location": "POINT (31.989408 -28.412431)",
    "longitude": 31.989408,
    "name": "kz Ocilwane Clinic",
    "province": "KwaZulu-Natal",
    "short_name": "Ocilwane Clinic"
   }
  },
  {
    "model": "clinicfinder.location",
    "fields":{
    "address": null,
    "code": 684542,
    "latitude": -30.0352,
    "location": "POINT (30.681148 -30.035245)",
    "longitude": 30.681148,
    "name": "kz Odidini Clinic",
    "province": "KwaZulu-Natal",
    "short_name": "Odidini Clinic"
   }
  },
  {
    "model": "clinicfinder.location",
    "fields":{
    "address": null,
    "code": 407260,
    "latitude": -29.1775,
    "location": "POINT (31.5129 -29.17757)",
    "longitude": 31.5129,
    "name": "kz Ohwebede Clinic",
    "province": "KwaZulu-Natal",
    "short_name": "Ohwebede Clinic"
   }
  },
  {
    "model": "clinicfinder.location",
    "fields":{
    "address": null,
    "code": 432433,
    "latitude": -28.2753,
    "location": "POINT (31.646591 -28.275328)",
    "longitude": 31.646591,
    "name": "kz Okhukho Clinic",
    "province": "KwaZulu-Natal",
    "short_name": "Okhukho Clinic"
   }
  },
  {
    "model": "clinicfinder.location",
    "fields":{
    "address": null,
    "code": 698951,
    "latitude": -28.6992,
    "location": "POINT (29.157833 -28.699284)",
    "longitude": 29.157833,
    "name": "kz Oliviershoek Clinic",
    "province": "KwaZulu-Natal",
    "short_name": "Oliviershoek Clinic"
   }
  },
  {
    "model": "clinicfinder.location",
    "fields":{
    "address": null,
    "code": 580651,
    "latitude": -27.8943,
    "location": "POINT (31.45617 -27.89433)",
    "longitude": 31.45617,
    "name": "kz Ombimbini Clinic",
    "province": "KwaZulu-Natal",
    "short_name": "Ombimbini Clinic"
   }
  },
  {
    "model": "clinicfinder.location",
    "fields":{
    "address": "Ophansi, Kajobe Area",
    "code": 138815,
    "latitude": -27.5891,
    "location": "POINT (32.314153 -27.589162)",
    "longitude": 32.314153,
    "name": "kz Ophansi Clinic",
    "province": "KwaZulu-Natal",
    "short_name": "Ophansi Clinic"
   }
  },
  {
    "model": "clinicfinder.location",
    "fields":{
    "address": null,
    "code": 262815,
    "latitude": -27.3002,
    "location": "POINT (32.099823 -27.300261)",
    "longitude": 32.099823,
    "name": "kz Ophondweni Clinic",
    "province": "KwaZulu-Natal",
    "short_name": "Ophondweni Clinic"
   }
  },
  {
    "model": "clinicfinder.location",
    "fields":{
    "address": "Ophuzane Area",
    "code": 724715,
    "latitude": -27.4696,
    "location": "POINT (30.950784 -27.469645)",
    "longitude": 30.950784,
    "name": "kz Ophuzana Clinic",
    "province": "KwaZulu-Natal",
    "short_name": "Ophuzana Clinic"
   }
  },
  {
    "model": "clinicfinder.location",
    "fields":{
    "address": null,
    "code": 285742,
    "latitude": -29.1376,
    "location": "POINT (31.16083 -29.13768)",
    "longitude": 31.16083,
    "name": "kz Oqaqeni Clinic",
    "province": "KwaZulu-Natal",
    "short_name": "Oqaqeni Clinic"
   }
  },
  {
    "model": "clinicfinder.location",
    "fields":{
    "address": null,
    "code": 885533,
    "latitude": -27.5718,
    "location": "POINT (32.445859 -27.571845)",
    "longitude": 32.445859,
    "name": "kz Oqondweni Clinic",
    "province": "KwaZulu-Natal",
    "short_name": "Oqondweni Clinic"
   }
  },
  {
    "model": "clinicfinder.location",
    "fields":{
    "address": "Q 1219 off Umdlebe Road",
    "code": 600724,
    "latitude": -29.9748,
    "location": "POINT (30.896524 -29.974899)",
    "longitude": 30.896524,
    "name": "kz Osizweni (Umlazi Q) Clinic",
    "province": "KwaZulu-Natal",
    "short_name": "Osizweni (Uml Q) Clinic"
   }
  },
  {
    "model": "clinicfinder.location",
    "fields":{
    "address": "Osizweni",
    "code": 827824,
    "latitude": -27.7899,
    "location": "POINT (30.130764 -27.78996)",
    "longitude": 30.130764,
    "name": "kz Osizweni 1 Clinic",
    "province": "KwaZulu-Natal",
    "short_name": "Osizweni 1 Clinic"
   }
  },
  {
    "model": "clinicfinder.location",
    "fields":{
    "address": "Mkabayi Street, Sect A",
    "code": 398124,
    "latitude": -27.7919,
    "location": "POINT (30.121619 -27.791979)",
    "longitude": 30.121619,
    "name": "kz Osizweni 2 Clinic",
    "province": "KwaZulu-Natal",
    "short_name": "Osizweni 2 Clinic"
   }
  },
  {
    "model": "clinicfinder.location",
    "fields":{
    "address": "Osizweni Section C",
    "code": 384315,
    "latitude": -27.7845,
    "location": "POINT (30.161261 -27.784505)",
    "longitude": 30.161261,
    "name": "kz Osizweni 3 Clinic",
    "province": "KwaZulu-Natal",
    "short_name": "Osizweni 3 Clinic"
   }
  },
  {
    "model": "clinicfinder.location",
    "fields":{
    "address": null,
    "code": 851824,
    "latitude": -28.8439,
    "location": "POINT (31.20414 -28.84398)",
    "longitude": 31.20414,
    "name": "kz Osungulweni Clinic",
    "province": "KwaZulu-Natal",
    "short_name": "Osungulweni Clinic"
   }
  },
  {
    "model": "clinicfinder.location",
    "fields":{
    "address": "Msiyane Area, Main Street",
    "code": 507342,
    "latitude": -27.426,
    "location": "POINT (32.057008 -27.42606)",
    "longitude": 32.057008,
    "name": "kz Othobothini CHC",
    "province": "KwaZulu-Natal",
    "short_name": "Othobothini CHC"
   }
  },
  {
    "model": "clinicfinder.location",
    "fields":{
    "address": "Mambedwini Area, off R74",
    "code": 796342,
    "latitude": -29.197,
    "location": "POINT (31.14895 -29.197)",
    "longitude": 31.14895,
    "name": "kz Otimati Clinic",
    "province": "KwaZulu-Natal",
    "short_name": "Otimati Clinic"
   }
  },
  {
    "model": "clinicfinder.location",
    "fields":{
    "address": null,
    "code": 215442,
    "latitude": -29.667,
    "location": "POINT (31.026766 -29.667019)",
    "longitude": 31.026766,
    "name": "kz Ottawa Clinic",
    "province": "KwaZulu-Natal",
    "short_name": "Ottawa Clinic"
   }
  },
  {
    "model": "clinicfinder.location",
    "fields":{
    "address": null,
    "code": 458660,
    "latitude": -29.8361,
    "location": "POINT (30.99978 -29.83611)",
    "longitude": 30.99978,
    "name": "kz Overport Clinic",
    "province": "KwaZulu-Natal",
    "short_name": "Overport Clinic"
   }
  },
  {
    "model": "clinicfinder.location",
    "fields":{
    "address": "Edendale, Pietermaritzburg, 3201",
    "code": 238142,
    "latitude": -29.6619,
    "location": "POINT (30.326011 -29.661953)",
    "longitude": 30.326011,
    "name": "kz Pata Clinic",
    "province": "KwaZulu-Natal",
    "short_name": "Pata Clinic"
   }
  },
  {
    "model": "clinicfinder.location",
    "fields":{
    "address": "10 Hoog Street, Paulpietersburg",
    "code": 332006,
    "latitude": -27.4231,
    "location": "POINT (30.818581 -27.423119)",
    "longitude": 30.818581000000002,
    "name": "kz Paulpietersburg Town Clinic",
    "province": "KwaZulu-Natal",
    "short_name": "Paulpietersburg Clinic"
   }
  },
  {
    "model": "clinicfinder.location",
    "fields":{
    "address": "1 Georgedale Road",
    "code": 353124,
    "latitude": -29.7962,
    "location": "POINT (30.622854 -29.79629)",
    "longitude": 30.622854,
    "name": "kz Peaceville Clinic",
    "province": "KwaZulu-Natal",
    "short_name": "Peaceville Clinic"
   }
  },
  {
    "model": "clinicfinder.location",
    "fields":{
    "address": "Dolphin Drive",
    "code": 245306,
    "latitude": -30.3707,
    "location": "POINT (30.703394 -30.370755)",
    "longitude": 30.703394,
    "name": "kz Pennington Clinic",
    "province": "KwaZulu-Natal",
    "short_name": "Pennington Clinic"
   }
  },
  {
    "model": "clinicfinder.location",
    "fields":{
    "address": "Mdlebe Mpuma E, Esikhawini J, Richards Bay, 3887",
    "code": 681651,
    "latitude": -28.8896,
    "location": "POINT (31.8934 -28.889692)",
    "longitude": 31.8934,
    "name": "kz Phaphamani Clinic",
    "province": "KwaZulu-Natal",
    "short_name": "Phaphamani Clinic"
   }
  },
  {
    "model": "clinicfinder.location",
    "fields":{
    "address": "Manguzi Road",
    "code": 268133,
    "latitude": -27.0839,
    "location": "POINT (32.556507 -27.083983)",
    "longitude": 32.556507,
    "name": "kz Phelandaba Clinic",
    "province": "KwaZulu-Natal",
    "short_name": "Phelandaba Clinic"
   }
  },
  {
    "model": "clinicfinder.location",
    "fields":{
    "address": "Kwa Cele Area, Dududu Road, Scottburgh, Scottburgh/Umzinto North, 4180",
    "code": 782806,
    "latitude": -30.2513,
    "location": "POINT (30.68312 -30.251382)",
    "longitude": 30.68312,
    "name": "kz Philani Clinic",
    "province": "KwaZulu-Natal",
    "short_name": "Philani Clinic"
   }
  },
  {
    "model": "clinicfinder.location",
    "fields":{
    "address": "32-36 Brookstone Place",
    "code": 631942,
    "latitude": -29.708,
    "location": "POINT (30.991944 -29.708042)",
    "longitude": 30.991944,
    "name": "kz Phoenix CHC",
    "province": "KwaZulu-Natal",
    "short_name": "Phoenix CHC"
   }
  },
  {
    "model": "clinicfinder.location",
    "fields":{
    "address": null,
    "code": 965715,
    "latitude": -29.7637,
    "location": "POINT (29.858085 -29.763796)",
    "longitude": 29.858085,
    "name": "kz Pholela CHC",
    "province": "KwaZulu-Natal",
    "short_name": "Pholela CHC"
   }
  },
  {
    "model": "clinicfinder.location",
    "fields":{
    "address": "St Faith's Road",
    "code": 170342,
    "latitude": -30.4253,
    "location": "POINT (30.150722 -30.425356)",
    "longitude": 30.150722,
    "name": "kz Phungashe Clinic",
    "province": "KwaZulu-Natal",
    "short_name": "Phungashe Clinic"
   }
  },
  {
    "model": "clinicfinder.location",
    "fields":{
    "address": "100 Pine Street",
    "code": 684660,
    "latitude": -29.0585,
    "location": "POINT (30.593677 -29.058541)",
    "longitude": 30.593677,
    "name": "kz Pine Street (Greytown) Clinic",
    "province": "KwaZulu-Natal",
    "short_name": "Pine St (Greytown) Clinic"
   }
  },
  {
    "model": "clinicfinder.location",
    "fields":{
    "address": "18 Chapel Street, New Germany, Pinetown, 3610",
    "code": 667460,
    "latitude": -29.8174,
    "location": "POINT (30.859057 -29.817493)",
    "longitude": 30.859057,
    "name": "kz Pinetown Clinic",
    "province": "KwaZulu-Natal",
    "short_name": "Pinetown Clinic"
   }
  },
  {
    "model": "clinicfinder.location",
    "fields":{
    "address": "Pisgah Elangeni",
    "code": 614115,
    "latitude": -30.6844,
    "location": "POINT (29.878568 -30.68447)",
    "longitude": 29.878568,
    "name": "kz Pisgah Clinic",
    "province": "KwaZulu-Natal",
    "short_name": "Pisgah Clinic"
   }
  },
  {
    "model": "clinicfinder.location",
    "fields":{
    "address": null,
    "code": 913715,
    "latitude": -28.5509,
    "location": "POINT (30.424724 -28.550981)",
    "longitude": 30.424724,
    "name": "kz Pomeroy CHC",
    "province": "KwaZulu-Natal",
    "short_name": "Pomeroy CHC"
   }
  },
  {
    "model": "clinicfinder.location",
    "fields":{
    "address": "660 Jan Mielie",
    "code": 642751,
    "latitude": -27.3774,
    "location": "POINT (31.622913 -27.377485)",
    "longitude": 31.622913,
    "name": "kz Pongola Clinic",
    "province": "KwaZulu-Natal",
    "short_name": "Pongola Clinic"
   }
  },
  {
    "model": "clinicfinder.location",
    "fields":{
    "address": "25 Albert Road",
    "code": 937324,
    "latitude": -31.0467,
    "location": "POINT (30.210885 -31.046731)",
    "longitude": 30.210885,
    "name": "kz Port Edward Clinic",
    "province": "KwaZulu-Natal",
    "short_name": "Port Edward Clinic"
   }
  },
  {
    "model": "clinicfinder.location",
    "fields":{
    "address": "595 Andreasen Street",
    "code": 435515,
    "latitude": -30.7375,
    "location": "POINT (30.443325 -30.737513)",
    "longitude": 30.443325,
    "name": "kz Port Shepstone Clinic",
    "province": "KwaZulu-Natal",
    "short_name": "P Shepstone Clinic"
   }
  },
  {
    "model": "clinicfinder.location",
    "fields":{
    "address": "V Section, Mangosuthu Highway",
    "code": 382215,
    "latitude": -29.9548,
    "location": "POINT (30.936625 -29.954824)",
    "longitude": 30.936625,
    "name": "kz Prince Mshiyeni Gateway Clinic",
    "province": "KwaZulu-Natal",
    "short_name": "Prince Mshiyeni Gateway"
   }
  },
  {
    "model": "clinicfinder.location",
    "fields":{
    "address": "1 Universal Avenue",
    "code": 272415,
    "latitude": -29.8592,
    "location": "POINT (31.009556 -29.85925)",
    "longitude": 31.009556,
    "name": "kz Prince Zulu Communicable Diseases Centre Clinic",
    "province": "KwaZulu-Natal",
    "short_name": "Prince Zulu CDC Clinic"
   }
  },
  {
    "model": "clinicfinder.location",
    "fields":{
    "address": "Tholakele Area",
    "code": 373106,
    "latitude": -27.4362,
    "location": "POINT (30.988694 -27.436281)",
    "longitude": 30.988694,
    "name": "kz Princess Mhlosheni Clinic",
    "province": "KwaZulu-Natal",
    "short_name": "Princess Mhlosheni Clinic"
   }
  },
  {
    "model": "clinicfinder.location",
    "fields":{
    "address": "Umzinyathi Area",
    "code": 553824,
    "latitude": -29.6674,
    "location": "POINT (30.903253 -29.667412)",
    "longitude": 30.903253,
    "name": "kz Qadi Clinic",
    "province": "KwaZulu-Natal",
    "short_name": "Qadi Clinic"
   }
  },
  {
    "model": "clinicfinder.location",
    "fields":{
    "address": "Kwa-Banalihle",
    "code": 768642,
    "latitude": -27.4883,
    "location": "POINT (31.165198 -27.488349)",
    "longitude": 31.165198,
    "name": "kz Qalukubheka Clinic",
    "province": "KwaZulu-Natal",
    "short_name": "Qalukubheka Clinic"
   }
  },
  {
    "model": "clinicfinder.location",
    "fields":{
    "address": "Cnr R618 and Nongoma Main Road, Nongoma, 3950",
    "code": 713151,
    "latitude": -27.8999,
    "location": "POINT (31.646528 -27.89991)",
    "longitude": 31.646528,
    "name": "kz Queen Nolonolo Clinic",
    "province": "KwaZulu-Natal",
    "short_name": "Queen Nolonolo Clinic"
   }
  },
  {
    "model": "clinicfinder.location",
    "fields":{
    "address": null,
    "code": 339215,
    "latitude": -29.8831,
    "location": "POINT (30.920554 -29.883164)",
    "longitude": 30.920554,
    "name": "kz Queensburgh Clinic",
    "province": "KwaZulu-Natal",
    "short_name": "Queensburgh Clinic"
   }
  },
  {
    "model": "clinicfinder.location",
    "fields":{
    "address": "R.k.khan Circle",
    "code": 243815,
    "latitude": -29.9172,
    "location": "POINT (30.886494 -29.917269)",
    "longitude": 30.886494,
    "name": "kz RK Khan Gateway Clinic",
    "province": "KwaZulu-Natal",
    "short_name": "RK Khan Gateway"
   }
  },
  {
    "model": "clinicfinder.location",
    "fields":{
    "address": "2 Redcliff Way",
    "code": 428751,
    "latitude": -29.639499999999998,
    "location": "POINT (31.021313 -29.639519)",
    "longitude": 31.021313,
    "name": "kz Redcliffe Clinic",
    "province": "KwaZulu-Natal",
    "short_name": "Redcliffe Clinic"
   }
  },
  {
    "model": "clinicfinder.location",
    "fields":{
    "address": "162 Effinghan Road, Rehill",
    "code": 785306,
    "latitude": -29.7778,
    "location": "POINT (31.019966 -29.777843)",
    "longitude": 31.019966,
    "name": "kz Redhill Clinic",
    "province": "KwaZulu-Natal",
    "short_name": "Redhill Clinic"
   }
  },
  {
    "model": "clinicfinder.location",
    "fields":{
    "address": "1 Riddick Road",
    "code": 630833,
    "latitude": -29.8043,
    "location": "POINT (30.937107 -29.804316)",
    "longitude": 30.937107,
    "name": "kz Reservoir Hills Clinic",
    "province": "KwaZulu-Natal",
    "short_name": "Reservoir Hills Clinic"
   }
  },
  {
    "model": "clinicfinder.location",
    "fields":{
    "address": null,
    "code": 717733,
    "latitude": -28.7556,
    "location": "POINT (32.050187 -28.75565)",
    "longitude": 32.050187,
    "name": "kz Richards Bay Clinic",
    "province": "KwaZulu-Natal",
    "short_name": "Richards Bay Clinic"
   }
  },
  {
    "model": "clinicfinder.location",
    "fields":{
    "address": "54nelson Street",
    "code": 189615,
    "latitude": -29.8688,
    "location": "POINT (30.273773 -29.8688)",
    "longitude": 30.273773,
    "name": "kz Richmond Clinic",
    "province": "KwaZulu-Natal",
    "short_name": "Richmond Clinic"
   }
  },
  {
    "model": "clinicfinder.location",
    "fields":{
    "address": null,
    "code": 770615,
    "latitude": -30.4878,
    "location": "POINT (29.82481 -30.48783)",
    "longitude": 29.82481,
    "name": "kz Rietvlei Gateway Clinic",
    "province": "KwaZulu-Natal",
    "short_name": "Rietvlei Gateway"
   }
  },
  {
    "model": "clinicfinder.location",
    "fields":{
    "address": "Riverside Area",
    "code": 257951,
    "latitude": -30.0844,
    "location": "POINT (29.71081 -30.08449)",
    "longitude": 29.71081,
    "name": "kz Riverside Clinic",
    "province": "KwaZulu-Natal",
    "short_name": "Riverside Clinic"
   }
  },
  {
    "model": "clinicfinder.location",
    "fields":{
    "address": null,
    "code": 864442,
    "latitude": -28.5005,
    "location": "POINT (30.207874 -28.500591)",
    "longitude": 30.207874,
    "name": "kz Rockcliff Clinic",
    "province": "KwaZulu-Natal",
    "short_name": "Rockcliff Clinic"
   }
  },
  {
    "model": "clinicfinder.location",
    "fields":{
    "address": "Oscarsberg Mission, Dundee, 3016",
    "code": 664551,
    "latitude": -28.3628,
    "location": "POINT (30.540275 -28.362837)",
    "longitude": 30.540275,
    "name": "kz Rorke's Drift Clinic",
    "province": "KwaZulu-Natal",
    "short_name": "Rorke's Drift Clinic"
   }
  },
  {
    "model": "clinicfinder.location",
    "fields":{
    "address": null,
    "code": 975842,
    "latitude": -27.7804,
    "location": "POINT (30.096134 -27.780461)",
    "longitude": 30.096134,
    "name": "kz Rosary Clinic",
    "province": "KwaZulu-Natal",
    "short_name": "Rosary Clinic"
   }
  },
  {
    "model": "clinicfinder.location",
    "fields":{
    "address": "Sahlumbe Area",
    "code": 539933,
    "latitude": -28.7391,
    "location": "POINT (30.192821 -28.739126)",
    "longitude": 30.192821,
    "name": "kz Sahlumbe Clinic",
    "province": "KwaZulu-Natal",
    "short_name": "Sahlumbe Clinic"
   }
  },
  {
    "model": "clinicfinder.location",
    "fields":{
    "address": "1 Sibisi Street",
    "code": 821542,
    "latitude": -28.1835,
    "location": "POINT (30.236706 -28.183515)",
    "longitude": 30.236706,
    "name": "kz Sakhimpilo Clinic",
    "province": "KwaZulu-Natal",
    "short_name": "Sakhimpilo Clinic"
   }
  },
  {
    "model": "clinicfinder.location",
    "fields":{
    "address": "Samangu Area (Ward 6)",
    "code": 607715,
    "latitude": -28.9992,
    "location": "POINT (31.325743 -28.999259)",
    "longitude": 31.325743,
    "name": "kz Samungu Clinic",
    "province": "KwaZulu-Natal",
    "short_name": "Samungu Clinic"
   }
  },
  {
    "model": "clinicfinder.location",
    "fields":{
    "address": null,
    "code": 746651,
    "latitude": -29.8681,
    "location": "POINT (29.999884 -29.868193)",
    "longitude": 29.999884,
    "name": "kz Sandanezwe Clinic",
    "province": "KwaZulu-Natal",
    "short_name": "Sandanezwe Clinic"
   }
  },
  {
    "model": "clinicfinder.location",
    "fields":{
    "address": null,
    "code": 480806,
    "latitude": -30.1854,
    "location": "POINT (30.407108 -30.185434)",
    "longitude": 30.407108,
    "name": "kz Sangcwaba Clinic",
    "province": "KwaZulu-Natal",
    "short_name": "Sangcwaba Clinic"
   }
  },
  {
    "model": "clinicfinder.location",
    "fields":{
    "address": "Cekeza",
    "code": 827333,
    "latitude": -30.5297,
    "location": "POINT (30.025555 -30.529722)",
    "longitude": 30.025555,
    "name": "kz Santombe Clinic",
    "province": "KwaZulu-Natal",
    "short_name": "Santombe Clinic"
   }
  },
  {
    "model": "clinicfinder.location",
    "fields":{
    "address": "Cnr Grassland Road",
    "code": 381824,
    "latitude": -29.8827,
    "location": "POINT (30.84332 -29.88275)",
    "longitude": 30.84332,
    "name": "kz Savannah Park Clinic",
    "province": "KwaZulu-Natal",
    "short_name": "Savannah Park Clinic"
   }
  },
  {
    "model": "clinicfinder.location",
    "fields":{
    "address": "Cnr Airth and Williamson Street",
    "code": 454251,
    "latitude": -30.2862,
    "location": "POINT (30.754353 -30.286218)",
    "longitude": 30.754353000000002,
    "name": "kz Scottburgh Clinic",
    "province": "KwaZulu-Natal",
    "short_name": "Scottburgh Clinic"
   }
  },
  {
    "model": "clinicfinder.location",
    "fields":{
    "address": "Oribi Road",
    "code": 238424,
    "latitude": -29.6247,
    "location": "POINT (30.394373 -29.624705)",
    "longitude": 30.394373,
    "name": "kz Scottsville Clinic",
    "province": "KwaZulu-Natal",
    "short_name": "Scottsville Clinic"
   }
  },
  {
    "model": "clinicfinder.location",
    "fields":{
    "address": "64 Truimph Road",
    "code": 445624,
    "latitude": -29.7962,
    "location": "POINT (31.0023 -29.79626)",
    "longitude": 31.0023,
    "name": "kz Sea Cow Lake Clinic",
    "province": "KwaZulu-Natal",
    "short_name": "Sea Cow Lake Clinic"
   }
  },
  {
    "model": "clinicfinder.location",
    "fields":{
    "address": "1 Protea Road",
    "code": 774415,
    "latitude": -29.4493,
    "location": "POINT (31.21837 -29.44933)",
    "longitude": 31.21837,
    "name": "kz Shakaskraal Clinic",
    "province": "KwaZulu-Natal",
    "short_name": "Shakaskraal Clinic"
   }
  },
  {
    "model": "clinicfinder.location",
    "fields":{
    "address": "265 Shallcross Road, Shallcross, Queensburgh, 4079",
    "code": 451551,
    "latitude": -29.8887,
    "location": "POINT (30.878146 -29.888795)",
    "longitude": 30.878146,
    "name": "kz Shallcross Clinic",
    "province": "KwaZulu-Natal",
    "short_name": "Shallcross Clinic"
   }
  },
  {
    "model": "clinicfinder.location",
    "fields":{
    "address": null,
    "code": 207524,
    "latitude": -30.53,
    "location": "POINT (29.43 -30.53)",
    "longitude": 29.43,
    "name": "kz Shayamoya Health Post",
    "province": "KwaZulu-Natal",
    "short_name": "Shayamoya HP"
   }
  },
  {
    "model": "clinicfinder.location",
    "fields":{
    "address": "Umdoni Road",
    "code": 128233,
    "latitude": -30.8006,
    "location": "POINT (30.411804 -30.800697)",
    "longitude": 30.411804,
    "name": "kz Shelly Beach Clinic",
    "province": "KwaZulu-Natal",
    "short_name": "Shelly Beach Clinic"
   }
  },
  {
    "model": "clinicfinder.location",
    "fields":{
    "address": "Private Bag X2211, Ingwavuma, 3968",
    "code": 386524,
    "latitude": -27.0819,
    "location": "POINT (32.228617 -27.081997)",
    "longitude": 32.228617,
    "name": "kz Shemula Clinic",
    "province": "KwaZulu-Natal",
    "short_name": "Shemula Clinic"
   }
  },
  {
    "model": "clinicfinder.location",
    "fields":{
    "address": null,
    "code": 102742,
    "latitude": -29.8654,
    "location": "POINT (30.761845 -29.865449)",
    "longitude": 30.761845,
    "name": "kz Shongweni Dam Clinic",
    "province": "KwaZulu-Natal",
    "short_name": "Shongweni Dam Clinic"
   }
  },
  {
    "model": "clinicfinder.location",
    "fields":{
    "address": null,
    "code": 266706,
    "latitude": -28.4783,
    "location": "POINT (30.271222 -28.478306)",
    "longitude": 30.271222,
    "name": "kz Sigweje Clinic",
    "province": "KwaZulu-Natal",
    "short_name": "Sigweje Clinic"
   }
  },
  {
    "model": "clinicfinder.location",
    "fields":{
    "address": "Mvolozana",
    "code": 318433,
    "latitude": -30.4564,
    "location": "POINT (29.73164 -30.45642)",
    "longitude": 29.73164,
    "name": "kz Sihleza Clinic",
    "province": "KwaZulu-Natal",
    "short_name": "Sihleza Clinic"
   }
  },
  {
    "model": "clinicfinder.location",
    "fields":{
    "address": "Newton Road",
    "code": 342733,
    "latitude": -29.675,
    "location": "POINT (30.295162 -29.675047)",
    "longitude": 30.295162,
    "name": "kz Sinathing Clinic",
    "province": "KwaZulu-Natal",
    "short_name": "Sinathing Clinic"
   }
  },
  {
    "model": "clinicfinder.location",
    "fields":{
    "address": "Singisi Village, Umzimkhulu",
    "code": 628333,
    "latitude": -30.0355,
    "location": "POINT (29.762882 -30.035571)",
    "longitude": 29.762882,
    "name": "kz Singisi Clinic",
    "province": "KwaZulu-Natal",
    "short_name": "Singisi Clinic"
   }
  },
  {
    "model": "clinicfinder.location",
    "fields":{
    "address": null,
    "code": 260324,
    "latitude": -30.1329,
    "location": "POINT (29.81915 -30.13297)",
    "longitude": 29.81915,
    "name": "kz Siphamandla Clinic",
    "province": "KwaZulu-Natal",
    "short_name": "Siphamandla Clinic"
   }
  },
  {
    "model": "clinicfinder.location",
    "fields":{
    "address": "R66 Mbizo 2",
    "code": 838015,
    "latitude": -28.8188,
    "location": "POINT (31.475012 -28.818824)",
    "longitude": 31.475012,
    "name": "kz Siphilile Clinic",
    "province": "KwaZulu-Natal",
    "short_name": "Siphilile Clinic"
   }
  },
  {
    "model": "clinicfinder.location",
    "fields":{
    "address": "Endumeni Street",
    "code": 929406,
    "latitude": -28.1952,
    "location": "POINT (30.15932 -28.195297)",
    "longitude": 30.15932,
    "name": "kz Siphimpilo Clinic",
    "province": "KwaZulu-Natal",
    "short_name": "Siphimpilo Clinic"
   }
  },
  {
    "model": "clinicfinder.location",
    "fields":{
    "address": "St Lucia Road",
    "code": 644651,
    "latitude": -28.3683,
    "location": "POINT (32.376632 -28.368368)",
    "longitude": 32.376632,
    "name": "kz Sipho Zungu Clinic",
    "province": "KwaZulu-Natal",
    "short_name": "Sipho Zungu Clinic"
   }
  },
  {
    "model": "clinicfinder.location",
    "fields":{
    "address": null,
    "code": 648833,
    "latitude": -29.6993,
    "location": "POINT (30.957171 -29.699351)",
    "longitude": 30.957171,
    "name": "kz Sivananda Clinic",
    "province": "KwaZulu-Natal",
    "short_name": "Sivananda Clinic"
   }
  },
  {
    "model": "clinicfinder.location",
    "fields":{
    "address": "Mvunyane Area",
    "code": 478942,
    "latitude": -28.0934,
    "location": "POINT (30.787868 -28.093475)",
    "longitude": 30.787868,
    "name": "kz Siyakhathala Clinic",
    "province": "KwaZulu-Natal",
    "short_name": "Siyakhathala Clinic"
   }
  },
  {
    "model": "clinicfinder.location",
    "fields":{
    "address": null,
    "code": 447106,
    "latitude": -27.9288,
    "location": "POINT (31.400547 -27.928893)",
    "longitude": 31.400547,
    "name": "kz Sizana Clinic",
    "province": "KwaZulu-Natal",
    "short_name": "Sizana Clinic"
   }
  },
  {
    "model": "clinicfinder.location",
    "fields":{
    "address": "Thuthuko Street, Sobantu",
    "code": 572224,
    "latitude": -29.5952,
    "location": "POINT (30.424803 -29.595254)",
    "longitude": 30.424803,
    "name": "kz Sobantu Clinic",
    "province": "KwaZulu-Natal",
    "short_name": "Sobantu Clinic"
   }
  },
  {
    "model": "clinicfinder.location",
    "fields":{
    "address": null,
    "code": 567633,
    "latitude": -29.9242,
    "location": "POINT (29.866472 -29.92427)",
    "longitude": 29.866472,
    "name": "kz Sokhela Clinic",
    "province": "KwaZulu-Natal",
    "short_name": "Sokhela Clinic"
   }
  },
  {
    "model": "clinicfinder.location",
    "fields":{
    "address": "Sokhulu Area 1031a",
    "code": 654951,
    "latitude": -28.5534,
    "location": "POINT (32.313987 -28.553471)",
    "longitude": 32.313987,
    "name": "kz Sokhulu Clinic",
    "province": "KwaZulu-Natal",
    "short_name": "Sokhulu Clinic"
   }
  },
  {
    "model": "clinicfinder.location",
    "fields":{
    "address": null,
    "code": 843242,
    "latitude": -28.3307,
    "location": "POINT (32.101045 -28.33076)",
    "longitude": 32.101045,
    "name": "kz Somkhele Clinic",
    "province": "KwaZulu-Natal",
    "short_name": "Somkhele Clinic"
   }
  },
  {
    "model": "clinicfinder.location",
    "fields":{
    "address": "Cnr Sevontein and Buoner Road",
    "code": 736515,
    "latitude": -29.698,
    "location": "POINT (30.125095 -29.698034)",
    "longitude": 30.125095,
    "name": "kz Songonzima Clinic",
    "province": "KwaZulu-Natal",
    "short_name": "Songonzima Clinic"
   }
  },
  {
    "model": "clinicfinder.location",
    "fields":{
    "address": "Lot 12 Porter Road",
    "code": 456315,
    "latitude": -30.6781,
    "location": "POINT (30.505435 -30.678188)",
    "longitude": 30.505435,
    "name": "kz Southport Clinic",
    "province": "KwaZulu-Natal",
    "short_name": "Southport Clinic"
   }
  },
  {
    "model": "clinicfinder.location",
    "fields":{
    "address": "Sovane Area",
    "code": 234833,
    "latitude": -27.6529,
    "location": "POINT (31.792656 -27.652951)",
    "longitude": 31.792656,
    "name": "kz Sovane Clinic",
    "province": "KwaZulu-Natal",
    "short_name": "Sovane Clinic"
   }
  },
  {
    "model": "clinicfinder.location",
    "fields":{
    "address": "Moodie Street",
    "code": 445015,
    "latitude": -30.5755,
    "location": "POINT (29.889283 -30.575561)",
    "longitude": 29.889283,
    "name": "kz St Andrew's Gateway Clinic",
    "province": "KwaZulu-Natal",
    "short_name": "St Andrew's Gateway"
   }
  },
  {
    "model": "clinicfinder.location",
    "fields":{
    "address": null,
    "code": 861515,
    "latitude": -29.8491,
    "location": "POINT (30.8257 -29.84913)",
    "longitude": 30.8257,
    "name": "kz St Anne's Clinic",
    "province": "KwaZulu-Natal",
    "short_name": "St Anne's Clinic"
   }
  },
  {
    "model": "clinicfinder.location",
    "fields":{
    "address": "Centocon",
    "code": 732460,
    "latitude": -30.0164,
    "location": "POINT (29.725588 -30.016463)",
    "longitude": 29.725588,
    "name": "kz St Apollinaris Gateway Clinic",
    "province": "KwaZulu-Natal",
    "short_name": "St Apollinaris Gateway"
   }
  },
  {
    "model": "clinicfinder.location",
    "fields":{
    "address": null,
    "code": 736351,
    "latitude": -28.5745,
    "location": "POINT (29.914917 -28.574528)",
    "longitude": 29.914917,
    "name": "kz St Chads CHC",
    "province": "KwaZulu-Natal",
    "short_name": "St Chads CHC"
   }
  },
  {
    "model": "clinicfinder.location",
    "fields":{
    "address": "St Faith's Road",
    "code": 948833,
    "latitude": -30.5296,
    "location": "POINT (30.201989 -30.52961)",
    "longitude": 30.201989,
    "name": "kz St Faith's Clinic",
    "province": "KwaZulu-Natal",
    "short_name": "St Faith's Clinic"
   }
  },
  {
    "model": "clinicfinder.location",
    "fields":{
    "address": "Clydesdale Residential Area",
    "code": 611251,
    "latitude": -30.2692,
    "location": "POINT (29.93276 -30.26925)",
    "longitude": 29.932760000000002,
    "name": "kz St Margaret's Clinic",
    "province": "KwaZulu-Natal",
    "short_name": "St Margaret's Clinic"
   }
  },
  {
    "model": "clinicfinder.location",
    "fields":{
    "address": "P 1843 Section 7",
    "code": 814515,
    "latitude": -27.769,
    "location": "POINT (30.080919 -27.769017)",
    "longitude": 30.080919,
    "name": "kz Stafford Clinic",
    "province": "KwaZulu-Natal",
    "short_name": "Stafford Clinic"
   }
  },
  {
    "model": "clinicfinder.location",
    "fields":{
    "address": "5 Oliver Tambo Avenue, Mvelani, Steadville, Ladysmith, 3370",
    "code": 317551,
    "latitude": -28.5613,
    "location": "POINT (29.817466 -28.56131)",
    "longitude": 29.817466,
    "name": "kz Steadville Clinic",
    "province": "KwaZulu-Natal",
    "short_name": "Steadville Clinic"
   }
  },
  {
    "model": "clinicfinder.location",
    "fields":{
    "address": "Stedham",
    "code": 311142,
    "latitude": -28.0628,
    "location": "POINT (31.302739 -28.062803)",
    "longitude": 31.302739,
    "name": "kz Stedham Clinic",
    "province": "KwaZulu-Natal",
    "short_name": "Stedham Clinic"
   }
  },
  {
    "model": "clinicfinder.location",
    "fields":{
    "address": null,
    "code": 247842,
    "latitude": -29.5896,
    "location": "POINT (29.60121 -29.58961)",
    "longitude": 29.601210000000002,
    "name": "kz Stepmore Health Post",
    "province": "KwaZulu-Natal",
    "short_name": "Stepmore HP"
   }
  },
  {
    "model": "clinicfinder.location",
    "fields":{
    "address": "40 Tower Road",
    "code": 845742,
    "latitude": -29.7239,
    "location": "POINT (31.018006 -29.723949)",
    "longitude": 31.018006,
    "name": "kz Stonebridge Clinic",
    "province": "KwaZulu-Natal",
    "short_name": "Stonebridge Clinic"
   }
  },
  {
    "model": "clinicfinder.location",
    "fields":{
    "address": "Rosary",
    "code": 519742,
    "latitude": -27.8653,
    "location": "POINT (30.150033 -27.86533)",
    "longitude": 30.150033,
    "name": "kz Sukumani Clinic",
    "province": "KwaZulu-Natal",
    "short_name": "Sukumani Clinic"
   }
  },
  {
    "model": "clinicfinder.location",
    "fields":{
    "address": "A682 Msomuhle Road",
    "code": 275433,
    "latitude": -29.1337,
    "location": "POINT (31.4011 -29.13376)",
    "longitude": 31.4011,
    "name": "kz Sundumbili CHC",
    "province": "KwaZulu-Natal",
    "short_name": "Sundumbili CHC"
   }
  },
  {
    "model": "clinicfinder.location",
    "fields":{
    "address": "186 Cnr Boerea and Van Riebeeck Street",
    "code": 872933,
    "latitude": -27.9345,
    "location": "POINT (31.21026 -27.934552)",
    "longitude": 31.21026,
    "name": "kz Swart Mfolozi Clinic",
    "province": "KwaZulu-Natal",
    "short_name": "Swart Mfolozi Clinic"
   }
  },
  {
    "model": "clinicfinder.location",
    "fields":{
    "address": "13 Ripon Road",
    "code": 546215,
    "latitude": -29.8271,
    "location": "POINT (30.981092 -29.827195)",
    "longitude": 30.981092,
    "name": "kz Sydenham Heights Clinic",
    "province": "KwaZulu-Natal",
    "short_name": "Sydenham Heights Clinic"
   }
  },
  {
    "model": "clinicfinder.location",
    "fields":{
    "address": "Edendale Road",
    "code": 637351,
    "latitude": -29.6819,
    "location": "POINT (30.191402 -29.681988)",
    "longitude": 30.191402,
    "name": "kz Taylors Halt Clinic",
    "province": "KwaZulu-Natal",
    "short_name": "Taylors Halt Clinic"
   }
  },
  {
    "model": "clinicfinder.location",
    "fields":{
    "address": null,
    "code": 931215,
    "latitude": -29.5328,
    "location": "POINT (30.85683 -29.53289)",
    "longitude": 30.85683,
    "name": "kz Thafamasi Clinic",
    "province": "KwaZulu-Natal",
    "short_name": "Thafamasi Clinic"
   }
  },
  {
    "model": "clinicfinder.location",
    "fields":{
    "address": null,
    "code": 536742,
    "latitude": -28.5536,
    "location": "POINT (31.045204 -28.553634)",
    "longitude": 31.045204,
    "name": "kz Thalaneni Clinic",
    "province": "KwaZulu-Natal",
    "short_name": "Thalaneni Clinic"
   }
  },
  {
    "model": "clinicfinder.location",
    "fields":{
    "address": "Mafusini",
    "code": 437815,
    "latitude": -28.047,
    "location": "POINT (30.081953 -28.047007)",
    "longitude": 30.081953,
    "name": "kz Thandanani Clinic (Dannhauser)",
    "province": "KwaZulu-Natal",
    "short_name": "Thandanani Clinic (Dann)"
   }
  },
  {
    "model": "clinicfinder.location",
    "fields":{
    "address": "Port Edward Road",
    "code": 613415,
    "latitude": -30.8609,
    "location": "POINT (30.151059 -30.860962)",
    "longitude": 30.151059,
    "name": "kz Thembalesizwe Clinic",
    "province": "KwaZulu-Natal",
    "short_name": "Thembalesizwe Clinic"
   }
  },
  {
    "model": "clinicfinder.location",
    "fields":{
    "address": null,
    "code": 442942,
    "latitude": -27.9288,
    "location": "POINT (30.247472 -27.928832)",
    "longitude": 30.247472,
    "name": "kz Thembalihle Clinic",
    "province": "KwaZulu-Natal",
    "short_name": "Thembalihle Clinic"
   }
  },
  {
    "model": "clinicfinder.location",
    "fields":{
    "address": "A 334 Mgozi Street",
    "code": 844142,
    "latitude": -27.9895,
    "location": "POINT (30.725378 -27.989558)",
    "longitude": 30.725378,
    "name": "kz Thembumusa Clinic",
    "province": "KwaZulu-Natal",
    "short_name": "Thembumusa Clinic"
   }
  },
  {
    "model": "clinicfinder.location",
    "fields":{
    "address": null,
    "code": 649533,
    "latitude": -27.0197,
    "location": "POINT (32.691273 -27.019767)",
    "longitude": 32.691273,
    "name": "kz Thengane Clinic",
    "province": "KwaZulu-Natal",
    "short_name": "Thengane Clinic"
   }
  },
  {
    "model": "clinicfinder.location",
    "fields":{
    "address": null,
    "code": 368533,
    "latitude": -28.8679,
    "location": "POINT (31.910198 -28.867966)",
    "longitude": 31.910198,
    "name": "kz Thokozani Clinic",
    "province": "KwaZulu-Natal",
    "short_name": "Thokozani Clinic"
   }
  },
  {
    "model": "clinicfinder.location",
    "fields":{
    "address": "159 Nelson Mandela Street",
    "code": 741615,
    "latitude": -28.7367,
    "location": "POINT (29.838334 -28.736768)",
    "longitude": 29.838334,
    "name": "kz Tholusizo Clinic",
    "province": "KwaZulu-Natal",
    "short_name": "Tholusizo Clinic"
   }
  },
  {
    "model": "clinicfinder.location",
    "fields":{
    "address": "Thonjeni Rural",
    "code": 770442,
    "latitude": -30.6467,
    "location": "POINT (30.121311 -30.646732)",
    "longitude": 30.121311,
    "name": "kz Thonjeni Clinic",
    "province": "KwaZulu-Natal",
    "short_name": "Thonjeni Clinic"
   }
  },
  {
    "model": "clinicfinder.location",
    "fields":{
    "address": null,
    "code": 618242,
    "latitude": -28.5645,
    "location": "POINT (31.3912 -28.5645)",
    "longitude": 31.3912,
    "name": "kz Thubalethu Health Post",
    "province": "KwaZulu-Natal",
    "short_name": "Thubalethu HP"
   }
  },
  {
    "model": "clinicfinder.location",
    "fields":{
    "address": "Khuphulunyawo",
    "code": 940215,
    "latitude": -27.3037,
    "location": "POINT (31.225917 -27.303782)",
    "longitude": 31.225917,
    "name": "kz Tobolsk Clinic",
    "province": "KwaZulu-Natal",
    "short_name": "Tobolsk Clinic"
   }
  },
  {
    "model": "clinicfinder.location",
    "fields":{
    "address": "7 Nxumalo Lane, Tongaat",
    "code": 851451,
    "latitude": -29.5687,
    "location": "POINT (31.116779 -29.568748)",
    "longitude": 31.116779,
    "name": "kz Tongaat CHC",
    "province": "KwaZulu-Natal",
    "short_name": "Tongaat CHC"
   }
  },
  {
    "model": "clinicfinder.location",
    "fields":{
    "address": "14 Cottonwood Drive",
    "code": 629715,
    "latitude": -29.654,
    "location": "POINT (31.00484 -29.654017)",
    "longitude": 31.00484,
    "name": "kz Trenance Park Clinic",
    "province": "KwaZulu-Natal",
    "short_name": "Trenance Clinic"
   }
  },
  {
    "model": "clinicfinder.location",
    "fields":{
    "address": "Old Main Road",
    "code": 334915,
    "latitude": -29.6495,
    "location": "POINT (29.672201 -29.649559)",
    "longitude": 29.672201,
    "name": "kz Tsatsi Memorial Clinic",
    "province": "KwaZulu-Natal",
    "short_name": "Tsatsi Mem Clinic"
   }
  },
  {
    "model": "clinicfinder.location",
    "fields":{
    "address": "Cnr Ndoje Clinic",
    "code": 528642,
    "latitude": -29.8431,
    "location": "POINT (30.809147 -29.84312)",
    "longitude": 30.809147,
    "name": "kz Tshelimnyama Clinic",
    "province": "KwaZulu-Natal",
    "short_name": "Tshelimnyama Clinic"
   }
  },
  {
    "model": "clinicfinder.location",
    "fields":{
    "address": "651 Mthombeni Road",
    "code": 711033,
    "latitude": -29.0717,
    "location": "POINT (30.606048 -29.071707)",
    "longitude": 30.606048,
    "name": "kz Ukuthula Clinic",
    "province": "KwaZulu-Natal",
    "short_name": "Ukuthula Clinic"
   }
  },
  {
    "model": "clinicfinder.location",
    "fields":{
    "address": "Umfolozi Street",
    "code": 600133,
    "latitude": -28.3339,
    "location": "POINT (31.41422 -28.333949)",
    "longitude": 31.41422,
    "name": "kz Ulundi A Clinic",
    "province": "KwaZulu-Natal",
    "short_name": "Ulundi A Clinic"
   }
  },
  {
    "model": "clinicfinder.location",
    "fields":{
    "address": null,
    "code": 242915,
    "latitude": -28.7133,
    "location": "POINT (32.165531 -28.713376)",
    "longitude": 32.165531,
    "name": "kz Umbonambi Clinic",
    "province": "KwaZulu-Natal",
    "short_name": "Umbonambi Clinic"
   }
  },
  {
    "model": "clinicfinder.location",
    "fields":{
    "address": "Off Main Road 603",
    "code": 812033,
    "latitude": -29.981,
    "location": "POINT (30.699177 -29.981043)",
    "longitude": 30.699177,
    "name": "kz Umbumbulu Clinic",
    "province": "KwaZulu-Natal",
    "short_name": "Umbumbulu Clinic"
   }
  },
  {
    "model": "clinicfinder.location",
    "fields":{
    "address": "Port Dunford",
    "code": 382833,
    "latitude": -28.9155,
    "location": "POINT (31.82833 -28.91556)",
    "longitude": 31.82833,
    "name": "kz Umkhontokayise Clinic",
    "province": "KwaZulu-Natal",
    "short_name": "Umkhontokayise Clinic"
   }
  },
  {
    "model": "clinicfinder.location",
    "fields":{
    "address": "41 Barrow Street",
    "code": 126224,
    "latitude": -30.2056,
    "location": "POINT (30.797545 -30.205627)",
    "longitude": 30.797545,
    "name": "kz Umkomaas Clinic",
    "province": "KwaZulu-Natal",
    "short_name": "Umkomaas Clinic"
   }
  },
  {
    "model": "clinicfinder.location",
    "fields":{
    "address": "Aa290 Ngcede Avenue",
    "code": 228551,
    "latitude": -29.977899999999998,
    "location": "POINT (30.866841 -29.97797)",
    "longitude": 30.866841,
    "name": "kz Umlazi AA Clinic",
    "province": "KwaZulu-Natal",
    "short_name": "Umlazi AA Clinic"
   }
  },
  {
    "model": "clinicfinder.location",
    "fields":{
    "address": "Cnr Asijiki and Siyavota",
    "code": 991933,
    "latitude": -29.9689,
    "location": "POINT (30.904668 -29.968962)",
    "longitude": 30.904668,
    "name": "kz Umlazi D Clinic",
    "province": "KwaZulu-Natal",
    "short_name": "Umlazi D Clinic"
   }
  },
  {
    "model": "clinicfinder.location",
    "fields":{
    "address": "Dorothy Nyembe",
    "code": 506433,
    "latitude": -29.9525,
    "location": "POINT (30.88481 -29.952549)",
    "longitude": 30.88481,
    "name": "kz Umlazi G Clinic",
    "province": "KwaZulu-Natal",
    "short_name": "Umlazi G Clinic"
   }
  },
  {
    "model": "clinicfinder.location",
    "fields":{
    "address": "K1326 Mgaga Road",
    "code": 603206,
    "latitude": -29.9644,
    "location": "POINT (30.850434 -29.964447)",
    "longitude": 30.850434,
    "name": "kz Umlazi K Clinic",
    "province": "KwaZulu-Natal",
    "short_name": "Umlazi K Clinic"
   }
  },
  {
    "model": "clinicfinder.location",
    "fields":{
    "address": "N253 Maponya Road",
    "code": 543133,
    "latitude": -29.9597,
    "location": "POINT (30.872789 -29.959782)",
    "longitude": 30.872789,
    "name": "kz Umlazi N Clinic",
    "province": "KwaZulu-Natal",
    "short_name": "Umlazi N Clinic"
   }
  },
  {
    "model": "clinicfinder.location",
    "fields":{
    "address": "Moris Gumede Drive",
    "code": 475442,
    "latitude": -29.9894,
    "location": "POINT (30.891842 -29.989453)",
    "longitude": 30.891842,
    "name": "kz Umlazi U21 Clinic",
    "province": "KwaZulu-Natal",
    "short_name": "Umlazi U21 Clinic"
   }
  },
  {
    "model": "clinicfinder.location",
    "fields":{
    "address": null,
    "code": 565242,
    "latitude": -30.1429,
    "location": "POINT (30.819217 -30.14291)",
    "longitude": 30.819217,
    "name": "kz Umnini Clinic",
    "province": "KwaZulu-Natal",
    "short_name": "Umnini Clinic"
   }
  },
  {
    "model": "clinicfinder.location",
    "fields":{
    "address": null,
    "code": 834360,
    "latitude": -29.1425,
    "location": "POINT (31.04259 -29.14255)",
    "longitude": 31.04259,
    "name": "kz Umphumulo Gateway Clinic",
    "province": "KwaZulu-Natal",
    "short_name": "Umphumulo Gateway"
   }
  },
  {
    "model": "clinicfinder.location",
    "fields":{
    "address": "Lot 281 Ambleside Road",
    "code": 223542,
    "latitude": -30.7196,
    "location": "POINT (30.473488 -30.719638)",
    "longitude": 30.473488,
    "name": "kz Umtentweni Clinic",
    "province": "KwaZulu-Natal",
    "short_name": "Umtentweni Clinic"
   }
  },
  {
    "model": "clinicfinder.location",
    "fields":{
    "address": null,
    "code": 354406,
    "latitude": -30.2553,
    "location": "POINT (29.926 -30.2553)",
    "longitude": 29.926,
    "name": "kz Umzimkhulu Clinic",
    "province": "KwaZulu-Natal",
    "short_name": "Umzimkhulu Clinic"
   }
  },
  {
    "model": "clinicfinder.location",
    "fields":{
    "address": null,
    "code": 151006,
    "latitude": -30.3043,
    "location": "POINT (30.667621 -30.304391)",
    "longitude": 30.667621,
    "name": "kz Umzinto Clinic",
    "province": "KwaZulu-Natal",
    "short_name": "Umzinto Clinic"
   }
  },
  {
    "model": "clinicfinder.location",
    "fields":{
    "address": "H1432 Umlazi T/shop",
    "code": 707342,
    "latitude": -29.951,
    "location": "POINT (30.868332 -29.951038)",
    "longitude": 30.868332,
    "name": "kz Umzomuhle (Umlazi H) Clinic",
    "province": "KwaZulu-Natal",
    "short_name": "Umzomuhle (Uml H) Clinic"
   }
  },
  {
    "model": "clinicfinder.location",
    "fields":{
    "address": "114 Underberg, Main Road",
    "code": 782406,
    "latitude": -29.7946,
    "location": "POINT (29.498498 -29.794661)",
    "longitude": 29.498498,
    "name": "kz Underberg Clinic",
    "province": "KwaZulu-Natal",
    "short_name": "Underberg Clinic"
   }
  },
  {
    "model": "clinicfinder.location",
    "fields":{
    "address": null,
    "code": 584442,
    "latitude": -28.942,
    "location": "POINT (30.94846 -28.94202)",
    "longitude": 30.94846,
    "name": "kz Untunjambili Gateway Clinic",
    "province": "KwaZulu-Natal",
    "short_name": "Untunjambili Gateway"
   }
  },
  {
    "model": "clinicfinder.location",
    "fields":{
    "address": "Usuthu Area",
    "code": 867724,
    "latitude": -27.9635,
    "location": "POINT (31.493886 -27.963563)",
    "longitude": 31.493886,
    "name": "kz Usuthu Clinic",
    "province": "KwaZulu-Natal",
    "short_name": "Usuthu Clinic"
   }
  },
  {
    "model": "clinicfinder.location",
    "fields":{
    "address": "Ngwenya Stand, Ward 3",
    "code": 774806,
    "latitude": -27.9896,
    "location": "POINT (30.149933 -27.989694)",
    "longitude": 30.149933,
    "name": "kz Verdriet Clinic",
    "province": "KwaZulu-Natal",
    "short_name": "Verdriet Clinic"
   }
  },
  {
    "model": "clinicfinder.location",
    "fields":{
    "address": "8 Wick Street, Verulam",
    "code": 759142,
    "latitude": -29.646,
    "location": "POINT (31.047122 -29.646029)",
    "longitude": 31.047122,
    "name": "kz Verulam Clinic",
    "province": "KwaZulu-Natal",
    "short_name": "Verulam Clinic"
   }
  },
  {
    "model": "clinicfinder.location",
    "fields":{
    "address": "Vumanhlamvu Mission",
    "code": 723415,
    "latitude": -28.6853,
    "location": "POINT (31.116376 -28.685397)",
    "longitude": 31.116376,
    "name": "kz Vumanhlamvu Clinic",
    "province": "KwaZulu-Natal",
    "short_name": "Vumanhlamvu Clinic"
   }
  },
  {
    "model": "clinicfinder.location",
    "fields":{
    "address": null,
    "code": 908115,
    "latitude": -27.681,
    "location": "POINT (31.182 -27.681)",
    "longitude": 31.182,
    "name": "kz Vumani Clinic",
    "province": "KwaZulu-Natal",
    "short_name": "Vumani Clinic"
   }
  },
  {
    "model": "clinicfinder.location",
    "fields":{
    "address": "20 Walton Street",
    "code": 525815,
    "latitude": -28.5575,
    "location": "POINT (29.778474 -28.557522)",
    "longitude": 29.778474,
    "name": "kz Walton Clinic",
    "province": "KwaZulu-Natal",
    "short_name": "Walton Clinic"
   }
  },
  {
    "model": "clinicfinder.location",
    "fields":{
    "address": "Rademeyer Road, Wasbank",
    "code": 676642,
    "latitude": -28.3004,
    "location": "POINT (30.08303 -28.30043)",
    "longitude": 30.08303,
    "name": "kz Wasbank Clinic",
    "province": "KwaZulu-Natal",
    "short_name": "Wasbank Clinic"
   }
  },
  {
    "model": "clinicfinder.location",
    "fields":{
    "address": "Link Road",
    "code": 359724,
    "latitude": -29.749,
    "location": "POINT (30.818179 -29.749055)",
    "longitude": 30.818179,
    "name": "kz Waterfall Clinic",
    "province": "KwaZulu-Natal",
    "short_name": "Waterfall Clinic"
   }
  },
  {
    "model": "clinicfinder.location",
    "fields":{
    "address": null,
    "code": 908415,
    "latitude": -29.664,
    "location": "POINT (31.049284 -29.664046)",
    "longitude": 31.049284,
    "name": "kz Waterloo Clinic",
    "province": "KwaZulu-Natal",
    "short_name": "Waterloo Clinic"
   }
  },
  {
    "model": "clinicfinder.location",
    "fields":{
    "address": "Watersmeet",
    "code": 382615,
    "latitude": -28.3961,
    "location": "POINT (29.734619 -28.396115)",
    "longitude": 29.734619,
    "name": "kz Watersmeet Clinic",
    "province": "KwaZulu-Natal",
    "short_name": "Watersmeet Clinic"
   }
  },
  {
    "model": "clinicfinder.location",
    "fields":{
    "address": null,
    "code": 632815,
    "latitude": -28.2261,
    "location": "POINT (31.568342 -28.226101)",
    "longitude": 31.568342,
    "name": "kz Wela Clinic",
    "province": "KwaZulu-Natal",
    "short_name": "Wela Clinic"
   }
  },
  {
    "model": "clinicfinder.location",
    "fields":{
    "address": "Barney Dladla Road",
    "code": 342224,
    "latitude": -29.052,
    "location": "POINT (29.785244 -29.05206)",
    "longitude": 29.785244,
    "name": "kz Wembezi Clinic",
    "province": "KwaZulu-Natal",
    "short_name": "Wembezi Clinic"
   }
  },
  {
    "model": "clinicfinder.location",
    "fields":{
    "address": "47 Norfolk Terrance",
    "code": 411824,
    "latitude": -29.8337,
    "location": "POINT (30.912704 -29.833751)",
    "longitude": 30.912704,
    "name": "kz Westville Clinic",
    "province": "KwaZulu-Natal",
    "short_name": "Westville Clinic"
   }
  },
  {
    "model": "clinicfinder.location",
    "fields":{
    "address": "Weza Road",
    "code": 193015,
    "latitude": -30.5911,
    "location": "POINT (29.745428 -30.591111)",
    "longitude": 29.745428,
    "name": "kz Weza Clinic",
    "province": "KwaZulu-Natal",
    "short_name": "Weza Clinic"
   }
  },
  {
    "model": "clinicfinder.location",
    "fields":{
    "address": "Willowfountain Road",
    "code": 448842,
    "latitude": -29.7039,
    "location": "POINT (30.326688 -29.703992)",
    "longitude": 30.326688,
    "name": "kz Willowfountain Clinic",
    "province": "KwaZulu-Natal",
    "short_name": "Willowfountain Clinic"
   }
  },
  {
    "model": "clinicfinder.location",
    "fields":{
    "address": null,
    "code": 269242,
    "latitude": -29.9057,
    "location": "POINT (30.90285 -29.9057)",
    "longitude": 30.90285,
    "name": "kz Woodhurst Clinic",
    "province": "KwaZulu-Natal",
    "short_name": "Woodhurst Clinic"
   }
  },
  {
    "model": "clinicfinder.location",
    "fields":{
    "address": "5 Spruce Road",
    "code": 258242,
    "latitude": -29.5799,
    "location": "POINT (30.392693 -29.579924)",
    "longitude": 30.392693,
    "name": "kz Woodlands Clinic",
    "province": "KwaZulu-Natal",
    "short_name": "Woodlands Clinic"
   }
  },
  {
    "model": "clinicfinder.location",
    "fields":{
    "address": "Wosyane",
    "code": 364060,
    "latitude": -29.5522,
    "location": "POINT (30.78283 -29.55221)",
    "longitude": 30.78283,
    "name": "kz Wosiyane Clinic",
    "province": "KwaZulu-Natal",
    "short_name": "Wosiyane Clinic"
   }
  },
  {
    "model": "clinicfinder.location",
    "fields":{
    "address": "181 Wyebank Road",
    "code": 378033,
    "latitude": -29.7708,
    "location": "POINT (30.876813 -29.770896)",
    "longitude": 30.876813,
    "name": "kz Wyebank Clinic",
    "province": "KwaZulu-Natal",
    "short_name": "Wyebank Clinic"
   }
  },
  {
    "model": "clinicfinder.location",
    "fields":{
    "address": "Private Bag X1010",
    "code": 766515,
    "latitude": -30.7433,
    "location": "POINT (29.908193 -30.743355)",
    "longitude": 29.908193,
    "name": "kz Xhamini Clinic",
    "province": "KwaZulu-Natal",
    "short_name": "Xhamini Clinic"
   }
  },
  {
    "model": "clinicfinder.location",
    "fields":{
    "address": "Mvutshini Res",
    "code": 890660,
    "latitude": -28.6487,
    "location": "POINT (30.941504 -28.648795)",
    "longitude": 30.941504,
    "name": "kz Xulu Clinic",
    "province": "KwaZulu-Natal",
    "short_name": "Xulu Clinic"
   }
  },
  {
    "model": "clinicfinder.location",
    "fields":{
    "address": null,
    "code": 773824,
    "latitude": -27.1257,
    "location": "POINT (32.280769 -27.125756)",
    "longitude": 32.280769,
    "name": "kz Zama Zama Clinic",
    "province": "KwaZulu-Natal",
    "short_name": "Zama Zama Clinic"
   }
  },
  {
    "model": "clinicfinder.location",
    "fields":{
    "address": null,
    "code": 241324,
    "latitude": -28.4382,
    "location": "POINT (30.696234 -28.438238)",
    "longitude": 30.696234,
    "name": "kz Zamimpilo Clinic",
    "province": "KwaZulu-Natal",
    "short_name": "Zamimpilo Clinic"
   }
  },
  {
    "model": "clinicfinder.location",
    "fields":{
    "address": "Zilulwane Clinic",
    "code": 936042,
    "latitude": -28.337,
    "location": "POINT (31.605492 -28.337048)",
    "longitude": 31.605492,
    "name": "kz Zilulwane Clinic",
    "province": "KwaZulu-Natal",
    "short_name": "Zilulwane Clinic"
   }
  },
  {
    "model": "clinicfinder.location",
    "fields":{
    "address": "M042019 Zwelinjani Road",
    "code": 849106,
    "latitude": -29.8856,
    "location": "POINT (30.708984 -29.885671)",
    "longitude": 30.708984,
    "name": "kz Zwelibomvu Clinic",
    "province": "KwaZulu-Natal",
    "short_name": "Zwelibomvu Clinic"
   }
  },
  {
    "model": "clinicfinder.location",
    "fields":{
    "address": "Zwelisha Area",
    "code": 323460,
    "latitude": -29.0593,
    "location": "POINT (29.736631 -29.059379)",
    "longitude": 29.736631,
    "name": "kz Zwelisha Clinic",
    "province": "KwaZulu-Natal",
    "short_name": "Zwelisha Clinic"
   }
  },
  {
    "model": "clinicfinder.location",
    "fields": {
      "address": "Stand 463, Paulpietersburg",
      "code": 141515,
      "latitude": -27.41,
      "location": "POINT (30.824559 -27.410074)",
      "longitude": 30.824559,
      "name": "kz eDumbe CHC",
      "province": "KwaZulu-Natal",
      "short_name": "eDumbe CHC"
    }
  }
]