[
  {
    "model": "clinicfinder.location",
    "fields":{
    "address": "Lang Street, Cloetesville",
    "code": 211451,
    "latitude": -33.9111,
    "location": "POINT (18.85523 -33.91111)",
    "longitude": 18.85523,
    "name": "wc Aan-het-Pad Clinic",
    "province": "Western Cape",
    "short_name": "Aan-het-Pad Clinic"
   }
  },
  {
    "model": "clinicfinder.location",
    "fields":{
    "address": null,
    "code": 888524,
    "latitude": -33.938,
    "location": "POINT (18.58464 -33.93802)",
    "longitude": 18.58464,
    "name": "wc Adriaanse Clinic",
    "province": "Western Cape",
    "short_name": "Adriaanse Clinic"
   }
  },
  {
    "model": "clinicfinder.location",
    "fields":{
    "address": "Station Road",
    "code": 274224,
    "latitude": -34.2047,
    "location": "POINT (21.58444 -34.20472)",
    "longitude": 21.58444,
    "name": "wc Albertinia Clinic",
    "province": "Western Cape",
    "short_name": "Albertinia Clinic"
   }
  },
  {
    "model": "clinicfinder.location",
    "fields":{
    "address": "Cnr Albow and Soul Streets",
    "code": 257924,
    "latitude": -33.8978,
    "location": "POINT (18.49092 -33.89786)",
    "longitude": 18.49092,
    "name": "wc Albow Gardens CDC",
    "province": "Western Cape",
    "short_name": "Albow Gardens CDC"
   }
  },
  {
    "model": "clinicfinder.location",
    "fields":{
    "address": "Bill Jefferey Rylaan",
    "code": 786915,
    "latitude": -34.1808,
    "location": "POINT (22.09222 -34.18083)",
    "longitude": 22.09222,
    "name": "wc Alma CDC",
    "province": "Western Cape",
    "short_name": "Alma CDC"
   }
  },
  {
    "model": "clinicfinder.location",
    "fields":{
    "address": "ERF460 Constantia Main Road, Alphen, Cape Town, 7800",
    "code": 482624,
    "latitude": -34.0196,
    "location": "POINT (18.445846 -34.019604)",
    "longitude": 18.445846,
    "name": "wc Alphen Clinic",
    "province": "Western Cape",
    "short_name": "Alphen Clinic"
   }
  },
  {
    "model": "clinicfinder.location",
    "fields":{
    "address": "Die Street, Amalienstein",
    "code": 425824,
    "latitude": -33.4861,
    "location": "POINT (21.46493 -33.48612)",
    "longitude": 21.46493,
    "name": "wc Amalienstein Clinic",
    "province": "Western Cape",
    "short_name": "Amalienstein Clinic"
   }
  },
  {
    "model": "clinicfinder.location",
    "fields":{
    "address": "22 Tinley Street, Barrydale",
    "code": 581115,
    "latitude": -33.9078,
    "location": "POINT (20.72283 -33.90783)",
    "longitude": 20.72283,
    "name": "wc Barrydale Clinic",
    "province": "Western Cape",
    "short_name": "Barrydale Clinic"
   }
  },
  {
    "model": "clinicfinder.location",
    "fields":{
    "address": "Van Schalkwyk Street",
    "code": 236115,
    "latitude": -32.3527,
    "location": "POINT (22.6075 -32.35278)",
    "longitude": 22.6075,
    "name": "wc Beaufort West CDC",
    "province": "Western Cape",
    "short_name": "B West CDC"
   }
  },
  {
    "model": "clinicfinder.location",
    "fields":{
    "address": "Krisante Street",
    "code": 731542,
    "latitude": -33.3326,
    "location": "POINT (19.32022 -33.33269)",
    "longitude": 19.32022,
    "name": "wc Bella Vista Clinic",
    "province": "Western Cape",
    "short_name": "Bella Vista Clinic"
   }
  },
  {
    "model": "clinicfinder.location",
    "fields":{
    "address": "Wesley Street, Robertson",
    "code": 627133,
    "latitude": -33.7905,
    "location": "POINT (19.89117 -33.79056)",
    "longitude": 19.89117,
    "name": "wc Bergsig Clinic",
    "province": "Western Cape",
    "short_name": "Bergsig Clinic"
   }
  },
  {
    "model": "clinicfinder.location",
    "fields":{
    "address": "Lavis Drive, Bishop Lavis",
    "code": 642333,
    "latitude": -33.949,
    "location": "POINT (18.58164 -33.94907)",
    "longitude": 18.58164,
    "name": "wc Bishop Lavis CDC",
    "province": "Western Cape",
    "short_name": "Bishop Lavis CDC"
   }
  },
  {
    "model": "clinicfinder.location",
    "fields":{
    "address": "3 George Road Blanco",
    "code": 267215,
    "latitude": -33.9436,
    "location": "POINT (22.41278 -33.94361)",
    "longitude": 22.41278,
    "name": "wc Blanco Clinic",
    "province": "Western Cape",
    "short_name": "Blanco Clinic"
   }
  },
  {
    "model": "clinicfinder.location",
    "fields":{
    "address": null,
    "code": 737733,
    "latitude": -33.8472,
    "location": "POINT (18.7508 -33.8472)",
    "longitude": 18.7508,
    "name": "wc Bloekombos Clinic",
    "province": "Western Cape",
    "short_name": "Bloekombos Clinic"
   }
  },
  {
    "model": "clinicfinder.location",
    "fields":{
    "address": "Brentley Road, Blue Downs",
    "code": 302660,
    "latitude": -33.9776,
    "location": "POINT (18.68582 -33.97767)",
    "longitude": 18.68582,
    "name": "wc Blue Downs Clinic",
    "province": "Western Cape",
    "short_name": "Blue Downs Clinic"
   }
  },
  {
    "model": "clinicfinder.location",
    "fields":{
    "address": "654 17th Avenue",
    "code": 318406,
    "latitude": -33.6066,
    "location": "POINT (22.23833 -33.60667)",
    "longitude": 22.23833,
    "name": "wc Bongolethu Clinic",
    "province": "Western Cape",
    "short_name": "Bongolethu Clinic"
   }
  },
  {
    "model": "clinicfinder.location",
    "fields":{
    "address": "Fontein Street, Botrivier",
    "code": 838233,
    "latitude": -34.2308,
    "location": "POINT (19.19836 -34.23083)",
    "longitude": 19.19836,
    "name": "wc Botrivier Clinic",
    "province": "Western Cape",
    "short_name": "Botrivier Clinic"
   }
  },
  {
    "model": "clinicfinder.location",
    "fields":{
    "address": "Paradys Street, Brackenfell",
    "code": 486951,
    "latitude": -33.8766,
    "location": "POINT (18.68813 -33.87664)",
    "longitude": 18.68813,
    "name": "wc Brackenfell Clinic",
    "province": "Western Cape",
    "short_name": "Brackenfell Clinic"
   }
  },
  {
    "model": "clinicfinder.location",
    "fields":{
    "address": "H/V Lang-en Rekreasie Street",
    "code": 244342,
    "latitude": -34.5354,
    "location": "POINT (20.04767 -34.53546)",
    "longitude": 20.04767,
    "name": "wc Bredasdorp Clinic",
    "province": "Western Cape",
    "short_name": "Bredasdorp Clinic"
   }
  },
  {
    "model": "clinicfinder.location",
    "fields":{
    "address": "Waboousigvier Pad Breerivier",
    "code": 363933,
    "latitude": -33.5286,
    "location": "POINT (19.20833 -33.52861)",
    "longitude": 19.20833,
    "name": "wc Breerivier Clinic",
    "province": "Western Cape",
    "short_name": "Breerivier Clinic"
   }
  },
  {
    "model": "clinicfinder.location",
    "fields":{
    "address": "23 Springbok Road",
    "code": 511306,
    "latitude": -33.6025,
    "location": "POINT (22.22083 -33.60259)",
    "longitude": 22.22083,
    "name": "wc Bridgeton CDC",
    "province": "Western Cape",
    "short_name": "Bridgeton CDC"
   }
  },
  {
    "model": "clinicfinder.location",
    "fields":{
    "address": "Brighton Road, Brighton",
    "code": 437206,
    "latitude": -33.8417,
    "location": "POINT (18.70589 -33.84175)",
    "longitude": 18.70589,
    "name": "wc Brighton Clinic",
    "province": "Western Cape",
    "short_name": "Brighton Clinic"
   }
  },
  {
    "model": "clinicfinder.location",
    "fields":{
    "address": "H/V Oliverdale and Stout Lane",
    "code": 455460,
    "latitude": -34.0368,
    "location": "POINT (20.53833 -34.03683)",
    "longitude": 20.53833,
    "name": "wc Buffeljagsrivier Clinic",
    "province": "Western Cape",
    "short_name": "Buffeljagsrivier Clinic"
   }
  },
  {
    "model": "clinicfinder.location",
    "fields":{
    "address": "Bredasdorp Road, Caledon",
    "code": 348260,
    "latitude": -34.2371,
    "location": "POINT (19.42867 -34.23717)",
    "longitude": 19.42867,
    "name": "wc Caledon Clinic",
    "province": "Western Cape",
    "short_name": "Caledon Clinic"
   }
  },
  {
    "model": "clinicfinder.location",
    "fields":{
    "address": "Voortrekker Road",
    "code": 574660,
    "latitude": -33.528,
    "location": "POINT (21.68139 -33.52806)",
    "longitude": 21.68139,
    "name": "wc Calitzdorp (Bergsig) Clinic",
    "province": "Western Cape",
    "short_name": "Calitzdorp (Berg) Clinic"
   }
  },
  {
    "model": "clinicfinder.location",
    "fields":{
    "address": null,
    "code": 490042,
    "latitude": -33.9288,
    "location": "POINT (18.43993 -33.92884)",
    "longitude": 18.43993,
    "name": "wc Chapel Street Clinic",
    "province": "Western Cape",
    "short_name": "Chapel Street Clinic"
   }
  },
  {
    "model": "clinicfinder.location",
    "fields":{
    "address": "Bohemia Street, Citrusdal, 7340",
    "code": 937833,
    "latitude": -32.5819,
    "location": "POINT (19.00833 -32.58194)",
    "longitude": 19.00833,
    "name": "wc Citrusdal Clinic",
    "province": "Western Cape",
    "short_name": "Citrusdal Clinic"
   }
  },
  {
    "model": "clinicfinder.location",
    "fields":{
    "address": "1 Cipress Avenue, Clanwilliam, 8135",
    "code": 474033,
    "latitude": -32.1858,
    "location": "POINT (18.89194 -32.18583)",
    "longitude": 18.891939999999998,
    "name": "wc Clanwilliam Clinic",
    "province": "Western Cape",
    "short_name": "Clanwilliam Clinic"
   }
  },
  {
    "model": "clinicfinder.location",
    "fields":{
    "address": "Old Standard Claremont",
    "code": 622606,
    "latitude": -33.9819,
    "location": "POINT (18.46612 -33.98193)",
    "longitude": 18.46612,
    "name": "wc Claremont Clinic",
    "province": "Western Cape",
    "short_name": "Claremont Clinic"
   }
  },
  {
    "model": "clinicfinder.location",
    "fields":{
    "address": "Cnr Tenant Street and Bell Street, Stellenbosch",
    "code": 793951,
    "latitude": -33.9227,
    "location": "POINT (18.85583 -33.92278)",
    "longitude": 18.85583,
    "name": "wc Cloetesville CDC",
    "province": "Western Cape",
    "short_name": "Cloetesville CDC"
   }
  },
  {
    "model": "clinicfinder.location",
    "fields":{
    "address": "H/V Jakaranda Coronatien Street Ashton",
    "code": 834206,
    "latitude": -33.8333,
    "location": "POINT (20.036 -33.83333)",
    "longitude": 20.036,
    "name": "wc Cogmanskloof Clinic",
    "province": "Western Cape",
    "short_name": "Cogmanskloof Clinic"
   }
  },
  {
    "model": "clinicfinder.location",
    "fields":{
    "address": "Pienaar Street, Conville, George",
    "code": 745742,
    "latitude": -33.9819,
    "location": "POINT (22.47389 -33.98194)",
    "longitude": 22.47389,
    "name": "wc Conville CDC",
    "province": "Western Cape",
    "short_name": "Conville CDC"
   }
  },
  {
    "model": "clinicfinder.location",
    "fields":{
    "address": "Geelhoud Street",
    "code": 249515,
    "latitude": -33.9511,
    "location": "POINT (23.49194 -33.95111)",
    "longitude": 23.49194,
    "name": "wc Crags Clinic",
    "province": "Western Cape",
    "short_name": "Crags Clinic"
   }
  },
  {
    "model": "clinicfinder.location",
    "fields":{
    "address": "Klipfontein Road, Cross Road, Cape Town, 7750",
    "code": 437915,
    "latitude": -33.9952,
    "location": "POINT (18.61015 -33.99527)",
    "longitude": 18.61015,
    "name": "wc Crossroads 1 Clinic",
    "province": "Western Cape",
    "short_name": "Crossroads 1 Clinic"
   }
  },
  {
    "model": "clinicfinder.location",
    "fields":{
    "address": "Lansdowne Road",
    "code": 572033,
    "latitude": -33.9982,
    "location": "POINT (18.59768 -33.99821)",
    "longitude": 18.59768,
    "name": "wc Crossroads CDC",
    "province": "Western Cape",
    "short_name": "Crossroads CDC"
   }
  },
  {
    "model": "clinicfinder.location",
    "fields":{
    "address": "Strand Street",
    "code": 374842,
    "latitude": -34.1766,
    "location": "POINT (22.11667 -34.17667)",
    "longitude": 22.11667,
    "name": "wc D'Almeida CDC",
    "province": "Western Cape",
    "short_name": "D'Almeida CDC"
   }
  },
  {
    "model": "clinicfinder.location",
    "fields":{
    "address": "Symphony Avenue, Groenheuwel",
    "code": 513215,
    "latitude": -33.7022,
    "location": "POINT (18.99167 -33.70222)",
    "longitude": 18.99167,
    "name": "wc Dalvale Clinic",
    "province": "Western Cape",
    "short_name": "Dalvale Clinic"
   }
  },
  {
    "model": "clinicfinder.location",
    "fields":{
    "address": "34 Caledon Street, Darling",
    "code": 441624,
    "latitude": -33.3705,
    "location": "POINT (18.38694 -33.37056)",
    "longitude": 18.38694,
    "name": "wc Darling Clinic",
    "province": "Western Cape",
    "short_name": "Darling Clinic"
   }
  },
  {
    "model": "clinicfinder.location",
    "fields":{
    "address": "Wilger Street",
    "code": 704760,
    "latitude": -33.4813,
    "location": "POINT (19.67183 -33.48133)",
    "longitude": 19.67183,
    "name": "wc De Doorns Clinic",
    "province": "Western Cape",
    "short_name": "De Doorns Clinic"
   }
  },
  {
    "model": "clinicfinder.location",
    "fields":{
    "address": "Bloemnek Road",
    "code": 783742,
    "latitude": -33.4983,
    "location": "POINT (22.51778 -33.49833)",
    "longitude": 22.51778,
    "name": "wc De Rust (Blommenek) Clinic",
    "province": "Western Cape",
    "short_name": "De Rust Clinic"
   }
  },
  {
    "model": "clinicfinder.location",
    "fields":{
    "address": "Main Road",
    "code": 443551,
    "latitude": -33.9642,
    "location": "POINT (18.64577 -33.96423)",
    "longitude": 18.64577,
    "name": "wc Delft CHC",
    "province": "Western Cape",
    "short_name": "Delft CHC"
   }
  },
  {
    "model": "clinicfinder.location",
    "fields":{
    "address": "Cnr Main and Voorbrug Roads, Delft South, Cape Town, 7100",
    "code": 718142,
    "latitude": -33.9917,
    "location": "POINT (18.633564 -33.991769)",
    "longitude": 18.633564,
    "name": "wc Delft South Clinic",
    "province": "Western Cape",
    "short_name": "Delft Clinic"
   }
  },
  {
    "model": "clinicfinder.location",
    "fields":{
    "address": "Schaay Road",
    "code": 707424,
    "latitude": -34.0345,
    "location": "POINT (18.4669 -34.03456)",
    "longitude": 18.4669,
    "name": "wc Diep River Clinic",
    "province": "Western Cape",
    "short_name": "Diep River Clinic"
   }
  },
  {
    "model": "clinicfinder.location",
    "fields":{
    "address": "Cnr Dingle and Church Street, Goodwood Estate, Cape Town, 7460",
    "code": 502660,
    "latitude": -33.9106,
    "location": "POINT (18.55041 -33.91064)",
    "longitude": 18.55041,
    "name": "wc Dirkie Uys Clinic",
    "province": "Western Cape",
    "short_name": "Dirkie Uys Clinic"
   }
  },
  {
    "model": "clinicfinder.location",
    "fields":{
    "address": "Cnr Primrose and Caledon Streets, Cape Town, 8000",
    "code": 222251,
    "latitude": -33.9283,
    "location": "POINT (18.49092 -33.92838)",
    "longitude": 18.49092,
    "name": "wc District Six CDC",
    "province": "Western Cape",
    "short_name": "District Six CDC"
   }
  },
  {
    "model": "clinicfinder.location",
    "fields":{
    "address": "Pajaro Avenue, Jamestown",
    "code": 311833,
    "latitude": -33.9794,
    "location": "POINT (18.84889 -33.97944)",
    "longitude": 18.84889,
    "name": "wc Don and Pat Bilton Clinic",
    "province": "Western Cape",
    "short_name": "Don and Pat Bilton Clinic"
   }
  },
  {
    "model": "clinicfinder.location",
    "fields":{
    "address": "Cnr Eland and Ebbe Hout Street",
    "code": 657715,
    "latitude": -33.9589,
    "location": "POINT (18.51781 -33.95892)",
    "longitude": 18.51781,
    "name": "wc Dr Abdurahman CDC",
    "province": "Western Cape",
    "short_name": "Dr Abdurahman CDC"
   }
  },
  {
    "model": "clinicfinder.location",
    "fields":{
    "address": null,
    "code": 424306,
    "latitude": -33.9918,
    "location": "POINT (18.672228 -33.9918)",
    "longitude": 18.672228,
    "name": "wc Dr Ivan Toms CDC",
    "province": "Western Cape",
    "short_name": "Dr Ivan Toms CDC"
   }
  },
  {
    "model": "clinicfinder.location",
    "fields":{
    "address": null,
    "code": 100933,
    "latitude": -33.8271,
    "location": "POINT (18.529724 -33.827149)",
    "longitude": 18.529724,
    "name": "wc Du Noon CHC",
    "province": "Western Cape",
    "short_name": "Du Noon CHC"
   }
  },
  {
    "model": "clinicfinder.location",
    "fields":{
    "address": "De Villiers Avenue, Durbanville, Cape Town, 7550",
    "code": 328306,
    "latitude": -33.8301,
    "location": "POINT (18.65422 -33.83014)",
    "longitude": 18.65422,
    "name": "wc Durbanville Clinic",
    "province": "Western Cape",
    "short_name": "Durbanville Clinic"
   }
  },
  {
    "model": "clinicfinder.location",
    "fields":{
    "address": "Bokkrawel Road",
    "code": 491533,
    "latitude": -33.575,
    "location": "POINT (22.43972 -33.57509)",
    "longitude": 22.43972,
    "name": "wc Dysselsdorp Clinic",
    "province": "Western Cape",
    "short_name": "Dysselsdorp Clinic"
   }
  },
  {
    "model": "clinicfinder.location",
    "fields":{
    "address": "1st Avenue, Eastridge",
    "code": 469051,
    "latitude": -34.0466,
    "location": "POINT (18.62222 -34.04661)",
    "longitude": 18.62222,
    "name": "wc Eastridge Clinic",
    "province": "Western Cape",
    "short_name": "Eastridge Clinic"
   }
  },
  {
    "model": "clinicfinder.location",
    "fields":{
    "address": "Andrew Street",
    "code": 685233,
    "latitude": -34.0039,
    "location": "POINT (18.72663 -34.0039)",
    "longitude": 18.72663,
    "name": "wc Eerste River Clinic",
    "province": "Western Cape",
    "short_name": "Eerste River Clinic"
   }
  },
  {
    "model": "clinicfinder.location",
    "fields":{
    "address": "Hoof Street",
    "code": 291606,
    "latitude": -32.3091,
    "location": "POINT (18.34611 -32.30917)",
    "longitude": 18.34611,
    "name": "wc Elands Bay Clinic",
    "province": "Western Cape",
    "short_name": "Elands Bay Clinic"
   }
  },
  {
    "model": "clinicfinder.location",
    "fields":{
    "address": "26th Ave Elsies River",
    "code": 868515,
    "latitude": -33.9297,
    "location": "POINT (18.57517 -33.92977)",
    "longitude": 18.57517,
    "name": "wc Elsies River Clinic",
    "province": "Western Cape",
    "short_name": "E River Clinic"
   }
  },
  {
    "model": "clinicfinder.location",
    "fields":{
    "address": "Maynjana Avenue",
    "code": 839742,
    "latitude": -33.6441,
    "location": "POINT (19.49139 -33.64417)",
    "longitude": 19.49139,
    "name": "wc Empilisweni (Worcester) Clinic",
    "province": "Western Cape",
    "short_name": "Empilisweni Clinic"
   }
  },
  {
    "model": "clinicfinder.location",
    "fields":{
    "address": "Van Zyl Street",
    "code": 855351,
    "latitude": -34.1713,
    "location": "POINT (22.11306 -34.17139)",
    "longitude": 22.11306,
    "name": "wc Eyethu Clinic",
    "province": "Western Cape",
    "short_name": "Eyethu Clinic"
   }
  },
  {
    "model": "clinicfinder.location",
    "fields":{
    "address": null,
    "code": 684124,
    "latitude": -33.9089,
    "location": "POINT (18.51103 -33.90894)",
    "longitude": 18.51103,
    "name": "wc Factreton Clinic",
    "province": "Western Cape",
    "short_name": "Factreton Clinic"
   }
  },
  {
    "model": "clinicfinder.location",
    "fields":{
    "address": "Dula Omar",
    "code": 185115,
    "latitude": -33.7821,
    "location": "POINT (18.71792 -33.78213)",
    "longitude": 18.71792,
    "name": "wc Fisantekraal Clinic",
    "province": "Western Cape",
    "short_name": "Fisantekraal Clinic"
   }
  },
  {
    "model": "clinicfinder.location",
    "fields":{
    "address": "Hoof Street, Gansbaai",
    "code": 762642,
    "latitude": -34.5898,
    "location": "POINT (19.351 -34.58983)",
    "longitude": 19.351,
    "name": "wc Gansbaai Clinic",
    "province": "Western Cape",
    "short_name": "Gansbaai Clinic"
   }
  },
  {
    "model": "clinicfinder.location",
    "fields":{
    "address": "Strydom Road, Genadendal",
    "code": 781151,
    "latitude": -34.0368,
    "location": "POINT (19.56083 -34.03683)",
    "longitude": 19.56083,
    "name": "wc Genadendal Clinic",
    "province": "Western Cape",
    "short_name": "Genadendal Clinic"
   }
  },
  {
    "model": "clinicfinder.location",
    "fields":{
    "address": "PO Box 3737, George Industria",
    "code": 847551,
    "latitude": -33.9608,
    "location": "POINT (22.45361 -33.96083)",
    "longitude": 22.45361,
    "name": "wc George Central Clinic",
    "province": "Western Cape",
    "short_name": "George Cen Clinic"
   }
  },
  {
    "model": "clinicfinder.location",
    "fields":{
    "address": "Moumtainside Boulevard and Sir Lowrys Pass Road, Gordons Bay",
    "code": 853324,
    "latitude": -34.1532,
    "location": "POINT (18.87944 -34.15324)",
    "longitude": 18.87944,
    "name": "wc Gordon's Bay CDC",
    "province": "Western Cape",
    "short_name": "Gordon's Bay CDC"
   }
  },
  {
    "model": "clinicfinder.location",
    "fields":{
    "address": "Roos Street Gouda",
    "code": 563315,
    "latitude": -33.2927,
    "location": "POINT (19.04583 -33.29278)",
    "longitude": 19.04583,
    "name": "wc Gouda Clinic",
    "province": "Western Cape",
    "short_name": "Gouda Clinic"
   }
  },
  {
    "model": "clinicfinder.location",
    "fields":{
    "address": "Ceder Street",
    "code": 181515,
    "latitude": -32.1594,
    "location": "POINT (18.60556 -32.15944)",
    "longitude": 18.60556,
    "name": "wc Graafwater Clinic",
    "province": "Western Cape",
    "short_name": "Graafwater Sat Clinic"
   }
  },
  {
    "model": "clinicfinder.location",
    "fields":{
    "address": "Ou Kaapse Road Grabouw",
    "code": 873842,
    "latitude": -34.1531,
    "location": "POINT (19.01051 -34.15313)",
    "longitude": 19.01051,
    "name": "wc Grabouw CHC",
    "province": "Western Cape",
    "short_name": "Grabouw CHC"
   }
  },
  {
    "model": "clinicfinder.location",
    "fields":{
    "address": "Victoria Road, Grassy Park",
    "code": 433260,
    "latitude": -34.0437,
    "location": "POINT (18.49159 -34.04377)",
    "longitude": 18.49159,
    "name": "wc Grassy Park CDC",
    "province": "Western Cape",
    "short_name": "Grassy Park CDC"
   }
  },
  {
    "model": "clinicfinder.location",
    "fields":{
    "address": "Charles Street",
    "code": 869333,
    "latitude": -34.0401,
    "location": "POINT (22.22242 -34.04012)",
    "longitude": 22.22242,
    "name": "wc Great Brak River Clinic",
    "province": "Western Cape",
    "short_name": "G Brak River Clinic"
   }
  },
  {
    "model": "clinicfinder.location",
    "fields":{
    "address": "Portswood Road, Greenpoint",
    "code": 417342,
    "latitude": -33.9057,
    "location": "POINT (18.41596 -33.90578)",
    "longitude": 18.41596,
    "name": "wc Green Point CDC",
    "province": "Western Cape",
    "short_name": "Green Point CDC"
   }
  },
  {
    "model": "clinicfinder.location",
    "fields":{
    "address": "Stiebeuer Street",
    "code": 216015,
    "latitude": -33.8949,
    "location": "POINT (19.10111 -33.89497)",
    "longitude": 19.10111,
    "name": "wc Groendal Clinic",
    "province": "Western Cape",
    "short_name": "Groendal Clinic"
   }
  },
  {
    "model": "clinicfinder.location",
    "fields":{
    "address": "Cnr Steve Biko and Bishops Court Street, Guguletu, Cape Town, 7750",
    "code": 147733,
    "latitude": -33.9891,
    "location": "POINT (18.57238 -33.98912)",
    "longitude": 18.57238,
    "name": "wc Guguletu CHC",
    "province": "Western Cape",
    "short_name": "Guguletu CHC"
   }
  },
  {
    "model": "clinicfinder.location",
    "fields":{
    "address": null,
    "code": 504006,
    "latitude": -33.9873,
    "location": "POINT (18.56582 -33.98735)",
    "longitude": 18.56582,
    "name": "wc Guguletu Clinic",
    "province": "Western Cape",
    "short_name": "Guguletu Clinic"
   }
  },
  {
    "model": "clinicfinder.location",
    "fields":{
    "address": "89 Hassan Khan Avenue, Strand",
    "code": 865551,
    "latitude": -34.1347,
    "location": "POINT (18.85211 -34.13472)",
    "longitude": 18.85211,
    "name": "wc Gustrouw CDC",
    "province": "Western Cape",
    "short_name": "Gustrouw CDC"
   }
  },
  {
    "model": "clinicfinder.location",
    "fields":{
    "address": "Berg Street, Haarlem",
    "code": 990751,
    "latitude": -33.7344,
    "location": "POINT (23.33389 -33.73444)",
    "longitude": 23.33389,
    "name": "wc Haarlem Clinic",
    "province": "Western Cape",
    "short_name": "Haarlem Clinic"
   }
  },
  {
    "model": "clinicfinder.location",
    "fields":{
    "address": "Kooitjieskloof Street",
    "code": 211933,
    "latitude": -32.9161,
    "location": "POINT (18.01028 -32.91611)",
    "longitude": 18.01028,
    "name": "wc Hanna Coetzee Clinic",
    "province": "Western Cape",
    "short_name": "Hanna Coetzee Clinic"
   }
  },
  {
    "model": "clinicfinder.location",
    "fields":{
    "address": "Cnr Hanlyn Walk and Hanover Park Avenue",
    "code": 528251,
    "latitude": -33.9946,
    "location": "POINT (18.52644 -33.9946)",
    "longitude": 18.52644,
    "name": "wc Hanover Park CHC",
    "province": "Western Cape",
    "short_name": "H Park CHC"
   }
  },
  {
    "model": "clinicfinder.location",
    "fields":{
    "address": null,
    "code": 128624,
    "latitude": -33.9938,
    "location": "POINT (18.5275 -33.99389)",
    "longitude": 18.5275,
    "name": "wc Hanover Park Clinic",
    "province": "Western Cape",
    "short_name": "H Park Clinic"
   }
  },
  {
    "model": "clinicfinder.location",
    "fields":{
    "address": "Sltanalaan",
    "code": 108424,
    "latitude": -33.9362,
    "location": "POINT (20.077249 -33.936213)",
    "longitude": 20.077249,
    "name": "wc Happy Valley Clinic",
    "province": "Western Cape",
    "short_name": "Happy Valley Clinic"
   }
  },
  {
    "model": "clinicfinder.location",
    "fields":{
    "address": "Frans Conradie",
    "code": 693142,
    "latitude": -33.851,
    "location": "POINT (18.71209 -33.85105)",
    "longitude": 18.71209,
    "name": "wc Harmonie Clinic",
    "province": "Western Cape",
    "short_name": "Harmonie Clinic"
   }
  },
  {
    "model": "clinicfinder.location",
    "fields":{
    "address": "79 George Viljoen Street",
    "code": 386460,
    "latitude": -34.3403,
    "location": "POINT (19.0295 -34.34033)",
    "longitude": 19.0295,
    "name": "wc Hawston Clinic",
    "province": "Western Cape",
    "short_name": "Hawston Clinic"
   }
  },
  {
    "model": "clinicfinder.location",
    "fields":{
    "address": "Hospital Street",
    "code": 261424,
    "latitude": -34.1022,
    "location": "POINT (20.96278 -34.10222)",
    "longitude": 20.96278,
    "name": "wc Heidelberg Clinic",
    "province": "Western Cape",
    "short_name": "Heidelberg Clinic"
   }
  },
  {
    "model": "clinicfinder.location",
    "fields":{
    "address": "Heideveld Road, Heideveld, Cape Town, 7764",
    "code": 252551,
    "latitude": -33.968,
    "location": "POINT (18.55143 -33.96805)",
    "longitude": 18.55143,
    "name": "wc Heideveld CDC",
    "province": "Western Cape",
    "short_name": "Heideveld CDC"
   }
  },
  {
    "model": "clinicfinder.location",
    "fields":{
    "address": "Heideveld Road, Heideveld, Cape Town, 7764",
    "code": 338651,
    "latitude": -33.968,
    "location": "POINT (18.55143 -33.96805)",
    "longitude": 18.55143,
    "name": "wc Heideveld Clinic",
    "province": "Western Cape",
    "short_name": "Heideveld Clinic"
   }
  },
  {
    "model": "clinicfinder.location",
    "fields":{
    "address": null,
    "code": 716642,
    "latitude": -34.4258,
    "location": "POINT (19.2203 -34.425809)",
    "longitude": 19.2203,
    "name": "wc Hermanus CDC",
    "province": "Western Cape",
    "short_name": "Hermanus CDC"
   }
  },
  {
    "model": "clinicfinder.location",
    "fields":{
    "address": "Chapel Street",
    "code": 943815,
    "latitude": -34.0486,
    "location": "POINT (23.09778 -34.04861)",
    "longitude": 23.09778,
    "name": "wc Hornlee Clinic",
    "province": "Western Cape",
    "short_name": "Hornlee Clinic"
   }
  },
  {
    "model": "clinicfinder.location",
    "fields":{
    "address": "Karbonkel Street",
    "code": 568924,
    "latitude": -34.0541,
    "location": "POINT (18.34268 -34.05417)",
    "longitude": 18.34268,
    "name": "wc Hout Bay Harbour CDC",
    "province": "Western Cape",
    "short_name": "H Bay Harbour CDC"
   }
  },
  {
    "model": "clinicfinder.location",
    "fields":{
    "address": "Main Road, Hout Bay",
    "code": 177842,
    "latitude": -34.0295,
    "location": "POINT (18.35729 -34.02957)",
    "longitude": 18.35729,
    "name": "wc Hout Bay Main Road Clinic",
    "province": "Western Cape",
    "short_name": "H Bay Main Road Clinic"
   }
  },
  {
    "model": "clinicfinder.location",
    "fields":{
    "address": "Schwartz Street",
    "code": 438515,
    "latitude": -33.6393,
    "location": "POINT (18.99835 -33.63936)",
    "longitude": 18.99835,
    "name": "wc Huis McCrone Clinic",
    "province": "Western Cape",
    "short_name": "Huis McCrone Clinic"
   }
  },
  {
    "model": "clinicfinder.location",
    "fields":{
    "address": "Hammandshand Way, Simonswyk, Stellenbosch, 7600",
    "code": 512406,
    "latitude": -33.9244,
    "location": "POINT (18.87502 -33.92444)",
    "longitude": 18.87502,
    "name": "wc Idas Valley Clinic",
    "province": "Western Cape",
    "short_name": "Idas Valley Clinic"
   }
  },
  {
    "model": "clinicfinder.location",
    "fields":{
    "address": null,
    "code": 846224,
    "latitude": -34.1137,
    "location": "POINT (18.86622 -34.11375)",
    "longitude": 18.86622,
    "name": "wc Ikhwezi CDC",
    "province": "Western Cape",
    "short_name": "Ikwezi CDC"
   }
  },
  {
    "model": "clinicfinder.location",
    "fields":{
    "address": "Msingizane Street, Brown's Farm, Cape Town",
    "code": 557833,
    "latitude": -34.0097,
    "location": "POINT (18.57892 -34.00971)",
    "longitude": 18.57892,
    "name": "wc Inzame Zabantu CDC",
    "province": "Western Cape",
    "short_name": "Inzame Zabantu CDC"
   }
  },
  {
    "model": "clinicfinder.location",
    "fields":{
    "address": null,
    "code": 177615,
    "latitude": -33.9152,
    "location": "POINT (18.64389 -33.91522)",
    "longitude": 18.64389,
    "name": "wc Kasselsvlei Clinic",
    "province": "Western Cape",
    "short_name": "Kasselsvlei Clinic"
   }
  },
  {
    "model": "clinicfinder.location",
    "fields":{
    "address": "Cnr Bassie and Setona Street",
    "code": 822524,
    "latitude": -33.9191,
    "location": "POINT (18.84611 -33.91917)",
    "longitude": 18.84611,
    "name": "wc Kayamandi Clinic",
    "province": "Western Cape",
    "short_name": "Kayamandi Clinic"
   }
  },
  {
    "model": "clinicfinder.location",
    "fields":{
    "address": "Chingwa Street",
    "code": 829624,
    "latitude": -34.0336,
    "location": "POINT (23.10778 -34.03361)",
    "longitude": 23.10778,
    "name": "wc Khayelethu Clinic",
    "province": "Western Cape",
    "short_name": "Khayelethu Clinic"
   }
  },
  {
    "model": "clinicfinder.location",
    "fields":{
    "address": "Lwandle Road, Khayelitsha, Cape Town, 7784",
    "code": 819815,
    "latitude": -34.0287,
    "location": "POINT (18.66539 -34.02875)",
    "longitude": 18.66539,
    "name": "wc Khayelitsha (Site B) CHC",
    "province": "Western Cape",
    "short_name": "Site B CHC"
   }
  },
  {
    "model": "clinicfinder.location",
    "fields":{
    "address": "Mergiant Street",
    "code": 415624,
    "latitude": -33.8094,
    "location": "POINT (18.86444 -33.80944)",
    "longitude": 18.86444,
    "name": "wc Klapmuts Clinic",
    "province": "Western Cape",
    "short_name": "Klapmuts Clinic"
   }
  },
  {
    "model": "clinicfinder.location",
    "fields":{
    "address": "Nieuwoud Street, Klawer",
    "code": 282424,
    "latitude": -31.7725,
    "location": "POINT (18.62417 -31.7725)",
    "longitude": 18.62417,
    "name": "wc Klawer Clinic",
    "province": "Western Cape",
    "short_name": "Klawer Clinic"
   }
  },
  {
    "model": "clinicfinder.location",
    "fields":{
    "address": "Keerweder Road, Paarl",
    "code": 923515,
    "latitude": -33.7391,
    "location": "POINT (19.02444 -33.73917)",
    "longitude": 19.02444,
    "name": "wc Klein Drakenstein Clinic",
    "province": "Western Cape",
    "short_name": "K Drakenstein Clinic"
   }
  },
  {
    "model": "clinicfinder.location",
    "fields":{
    "address": "1 Protea Road",
    "code": 242951,
    "latitude": -34.3403,
    "location": "POINT (19.01633 -34.34033)",
    "longitude": 19.01633,
    "name": "wc Kleinmond Clinic",
    "province": "Western Cape",
    "short_name": "Kleinmond Clinic"
   }
  },
  {
    "model": "clinicfinder.location",
    "fields":{
    "address": "Cnr Melkbos and Albert Philander Road",
    "code": 842924,
    "latitude": -33.9869,
    "location": "POINT (18.71758 -33.98697)",
    "longitude": 18.71758,
    "name": "wc Kleinvlei CDC",
    "province": "Western Cape",
    "short_name": "Kleinvlei CDC"
   }
  },
  {
    "model": "clinicfinder.location",
    "fields":{
    "address": "Cnr Klip Road Kiewier Road",
    "code": 418342,
    "latitude": -34.0354,
    "location": "POINT (18.50307 -34.03549)",
    "longitude": 18.50307,
    "name": "wc Klip Road Clinic",
    "province": "Western Cape",
    "short_name": "Klip Road Clinic"
   }
  },
  {
    "model": "clinicfinder.location",
    "fields":{
    "address": "Gijima Street",
    "code": 688960,
    "latitude": -34.0288,
    "location": "POINT (23.06028 -34.02889)",
    "longitude": 23.06028,
    "name": "wc Knysna CDC",
    "province": "Western Cape",
    "short_name": "Knysna CDC"
   }
  },
  {
    "model": "clinicfinder.location",
    "fields":{
    "address": "Queen Street",
    "code": 742842,
    "latitude": -34.0374,
    "location": "POINT (23.05028 -34.03744)",
    "longitude": 23.05028,
    "name": "wc Knysna Town Clinic",
    "province": "Western Cape",
    "short_name": "Knysna Town Clinic"
   }
  },
  {
    "model": "clinicfinder.location",
    "fields":{
    "address": "203 6th Avenue, Kraaifontein",
    "code": 462651,
    "latitude": -33.8529,
    "location": "POINT (18.72149 -33.85298)",
    "longitude": 18.72149,
    "name": "wc Kraaifontein CHC",
    "province": "Western Cape",
    "short_name": "Kraaifontein CHC"
   }
  },
  {
    "model": "clinicfinder.location",
    "fields":{
    "address": "38 Van Rooyen Street",
    "code": 192715,
    "latitude": -34.0877,
    "location": "POINT (23.29694 -34.08778)",
    "longitude": 23.29694,
    "name": "wc Kranshoek Clinic",
    "province": "Western Cape",
    "short_name": "Kranshoek Clinic"
   }
  },
  {
    "model": "clinicfinder.location",
    "fields":{
    "address": "Carinus Street, Kuilsriver",
    "code": 723842,
    "latitude": -33.9254,
    "location": "POINT (18.68099 -33.92541)",
    "longitude": 18.68099,
    "name": "wc Kuilsriver Clinic",
    "province": "Western Cape",
    "short_name": "Kuilsriver Clinic"
   }
  },
  {
    "model": "clinicfinder.location",
    "fields":{
    "address": null,
    "code": 838942,
    "latitude": -34.003,
    "location": "POINT (22.494 -34.003)",
    "longitude": 22.494,
    "name": "wc Kuyasa (George) Clinic",
    "province": "Western Cape",
    "short_name": "Kuyasa (George) Clinic"
   }
  },
  {
    "model": "clinicfinder.location",
    "fields":{
    "address": "Ntlazane Road",
    "code": 610806,
    "latitude": -34.0492,
    "location": "POINT (18.65621 -34.04929)",
    "longitude": 18.65621,
    "name": "wc Kuyasa CDC",
    "province": "Western Cape",
    "short_name": "Kuyasa CDC"
   }
  },
  {
    "model": "clinicfinder.location",
    "fields":{
    "address": "Sishuba Street",
    "code": 491333,
    "latitude": -34.0477,
    "location": "POINT (23.32361 -34.04778)",
    "longitude": 23.32361,
    "name": "wc KwaNokuthula CDC",
    "province": "Western Cape",
    "short_name": "KwaNokuthula CDC"
   }
  },
  {
    "model": "clinicfinder.location",
    "fields":{
    "address": "Plaza Avenue",
    "code": 457733,
    "latitude": -32.3683,
    "location": "POINT (22.58167 -32.36833)",
    "longitude": 22.58167,
    "name": "wc Kwamandlenkosi Clinic",
    "province": "Western Cape",
    "short_name": "Kwamandlenkosi Clinic"
   }
  },
  {
    "model": "clinicfinder.location",
    "fields":{
    "address": "Skoofsnaal Kylemore, Stellenbosch",
    "code": 452242,
    "latitude": -33.9191,
    "location": "POINT (18.95333 -33.91917)",
    "longitude": 18.95333,
    "name": "wc Kylemore Clinic",
    "province": "Western Cape",
    "short_name": "Kylemore Clinic"
   }
  },
  {
    "model": "clinicfinder.location",
    "fields":{
    "address": "Upper Church Street, Ladismith",
    "code": 197606,
    "latitude": -33.4958,
    "location": "POINT (21.27278 -33.49583)",
    "longitude": 21.27278,
    "name": "wc Ladismith (Nissenville) Clinic",
    "province": "Western Cape",
    "short_name": "Ladismith Clinic"
   }
  },
  {
    "model": "clinicfinder.location",
    "fields":{
    "address": "Burnham Road, Plumstead, Cape Town, 7800",
    "code": 783833,
    "latitude": -34.0215,
    "location": "POINT (18.46472 -34.02155)",
    "longitude": 18.46472,
    "name": "wc Lady Michaelis CDC",
    "province": "Western Cape",
    "short_name": "Lady Michaelis CDC"
   }
  },
  {
    "model": "clinicfinder.location",
    "fields":{
    "address": "Voortrekker Street, Laingsburg, 6900",
    "code": 784424,
    "latitude": -33.1944,
    "location": "POINT (20.85028 -33.19444)",
    "longitude": 20.85028,
    "name": "wc Laingsburg Clinic",
    "province": "Western Cape",
    "short_name": "Laingsburg Clinic"
   }
  },
  {
    "model": "clinicfinder.location",
    "fields":{
    "address": "Strand Street, St Helena Bay",
    "code": 516142,
    "latitude": -32.7872,
    "location": "POINT (18.05972 -32.78722)",
    "longitude": 18.05972,
    "name": "wc Laingville Clinic",
    "province": "Western Cape",
    "short_name": "Laingville Clinic"
   }
  },
  {
    "model": "clinicfinder.location",
    "fields":{
    "address": "Oaks Road Hopefield",
    "code": 372342,
    "latitude": -33.0669,
    "location": "POINT (18.33611 -33.06694)",
    "longitude": 18.33611,
    "name": "wc Lalie Cleophas Clinic",
    "province": "Western Cape",
    "short_name": "L Cleophas Clinic"
   }
  },
  {
    "model": "clinicfinder.location",
    "fields":{
    "address": "Burrel Street",
    "code": 137351,
    "latitude": -32.0944,
    "location": "POINT (18.30667 -32.09444)",
    "longitude": 18.30667,
    "name": "wc Lamberts Bay Clinic",
    "province": "Western Cape",
    "short_name": "Lamberts Bay Clinic"
   }
  },
  {
    "model": "clinicfinder.location",
    "fields":{
    "address": null,
    "code": 232224,
    "latitude": -33.9441,
    "location": "POINT (18.52588 -33.94417)",
    "longitude": 18.52588,
    "name": "wc Langa Clinic",
    "province": "Western Cape",
    "short_name": "Langa Clinic"
   }
  },
  {
    "model": "clinicfinder.location",
    "fields":{
    "address": "Antonio Seini",
    "code": 375515,
    "latitude": -33.0827,
    "location": "POINT (18.03556 -33.08278)",
    "longitude": 18.03556,
    "name": "wc Langebaan Clinic",
    "province": "Western Cape",
    "short_name": "Langebaan Clinic"
   }
  },
  {
    "model": "clinicfinder.location",
    "fields":{
    "address": null,
    "code": 897751,
    "latitude": -33.9916,
    "location": "POINT (18.5052 -33.99167)",
    "longitude": 18.5052,
    "name": "wc Lansdowne Clinic",
    "province": "Western Cape",
    "short_name": "Lansdowne Clinic"
   }
  },
  {
    "model": "clinicfinder.location",
    "fields":{
    "address": "74 Grindal Road, Lavender Hill",
    "code": 852651,
    "latitude": -34.0684,
    "location": "POINT (18.48618 -34.06848)",
    "longitude": 18.48618,
    "name": "wc Lavender Hill Clinic",
    "province": "Western Cape",
    "short_name": "Lavender Hill Clinic"
   }
  },
  {
    "model": "clinicfinder.location",
    "fields":{
    "address": "Standford Manqaliso Street, Lawaaikamp",
    "code": 130751,
    "latitude": -33.9916,
    "location": "POINT (22.47361 -33.99167)",
    "longitude": 22.47361,
    "name": "wc Lawaaikamp Clinic",
    "province": "Western Cape",
    "short_name": "Lawaaikamp Clinic"
   }
  },
  {
    "model": "clinicfinder.location",
    "fields":{
    "address": null,
    "code": 838424,
    "latitude": -34.0343,
    "location": "POINT (18.60943 -34.03436)",
    "longitude": 18.60943,
    "name": "wc Lentegeur Clinic",
    "province": "Western Cape",
    "short_name": "Lentegeur Clinic"
   }
  },
  {
    "model": "clinicfinder.location",
    "fields":{
    "address": "Cnr Anita and Delia Road",
    "code": 451260,
    "latitude": -34.0265,
    "location": "POINT (18.5078 -34.02657)",
    "longitude": 18.5078,
    "name": "wc Lotus River CDC",
    "province": "Western Cape",
    "short_name": "Lotus River CDC"
   }
  },
  {
    "model": "clinicfinder.location",
    "fields":{
    "address": "Six Street",
    "code": 488415,
    "latitude": -32.917,
    "location": "POINT (17.99995 -32.91705)",
    "longitude": 17.99995,
    "name": "wc Louwville Clinic",
    "province": "Western Cape",
    "short_name": "Louwville Clinic"
   }
  },
  {
    "model": "clinicfinder.location",
    "fields":{
    "address": "3 Station Road",
    "code": 152315,
    "latitude": -31.5572,
    "location": "POINT (18.34444 -31.55722)",
    "longitude": 18.34444,
    "name": "wc Lutzville Clinic",
    "province": "Western Cape",
    "short_name": "Lutzville Clinic"
   }
  },
  {
    "model": "clinicfinder.location",
    "fields":{
    "address": "Hlela Road, Bus Terminus Makaza, Kayelitsha",
    "code": 675751,
    "latitude": -34.052,
    "location": "POINT (18.70949 -34.05207)",
    "longitude": 18.70949,
    "name": "wc Luvuyo CDC",
    "province": "Western Cape",
    "short_name": "Luvuyo CDC"
   }
  },
  {
    "model": "clinicfinder.location",
    "fields":{
    "address": "Cnr Hospital and Musica Street, Macassar, Cape Town, 7130",
    "code": 108633,
    "latitude": -34.061,
    "location": "POINT (18.76369 -34.06105)",
    "longitude": 18.76369,
    "name": "wc Macassar CDC",
    "province": "Western Cape",
    "short_name": "Macassar CDC"
   }
  },
  {
    "model": "clinicfinder.location",
    "fields":{
    "address": "Northfol Street",
    "code": 263460,
    "latitude": -33.9222,
    "location": "POINT (18.48875 -33.92227)",
    "longitude": 18.48875,
    "name": "wc Maitland Clinic",
    "province": "Western Cape",
    "short_name": "Maitland Clinic"
   }
  },
  {
    "model": "clinicfinder.location",
    "fields":{
    "address": null,
    "code": 174133,
    "latitude": -33.4656,
    "location": "POINT (18.703215 -33.465691)",
    "longitude": 18.703215,
    "name": "wc Malmesbury CDC",
    "province": "Western Cape",
    "short_name": "Malmesbury CDC"
   }
  },
  {
    "model": "clinicfinder.location",
    "fields":{
    "address": "25 Adam Street, Mamre, Cape Town, 7347",
    "code": 722351,
    "latitude": -33.5132,
    "location": "POINT (18.47658 -33.51329)",
    "longitude": 18.47658,
    "name": "wc Mamre CDC",
    "province": "Western Cape",
    "short_name": "Mamre CDC"
   }
  },
  {
    "model": "clinicfinder.location",
    "fields":{
    "address": "Manenberg Ave",
    "code": 328633,
    "latitude": -33.9883,
    "location": "POINT (18.55522 -33.98838)",
    "longitude": 18.55522,
    "name": "wc Manenberg Clinic",
    "province": "Western Cape",
    "short_name": "Manenberg Clinic"
   }
  },
  {
    "model": "clinicfinder.location",
    "fields":{
    "address": "Mjod Street KTC",
    "code": 306024,
    "latitude": -33.9851,
    "location": "POINT (18.57834 -33.98511)",
    "longitude": 18.57834,
    "name": "wc Masincedane Clinic",
    "province": "Western Cape",
    "short_name": "Masincedane Clinic"
   }
  },
  {
    "model": "clinicfinder.location",
    "fields":{
    "address": "1519 Pokela Street",
    "code": 298115,
    "latitude": -34.129,
    "location": "POINT (18.37842 -34.12907)",
    "longitude": 18.37842,
    "name": "wc Masiphumelele Clinic",
    "province": "Western Cape",
    "short_name": "Masiphumelele Clinic"
   }
  },
  {
    "model": "clinicfinder.location",
    "fields":{
    "address": "9 Kwahlaza Road, Makaza",
    "code": 586933,
    "latitude": -34.0443,
    "location": "POINT (18.70551 -34.0443)",
    "longitude": 18.70551,
    "name": "wc Matthew Goniwe CDC",
    "province": "Western Cape",
    "short_name": "Matthew Goniwe CDC"
   }
  },
  {
    "model": "clinicfinder.location",
    "fields":{
    "address": null,
    "code": 712351,
    "latitude": -34.0521,
    "location": "POINT (18.70214 -34.05217)",
    "longitude": 18.70214,
    "name": "wc Mayenzeke Clinic",
    "province": "Western Cape",
    "short_name": "Mayenzeke Clinic"
   }
  },
  {
    "model": "clinicfinder.location",
    "fields":{
    "address": null,
    "code": 538724,
    "latitude": -33.675,
    "location": "POINT (18.99278 -33.675)",
    "longitude": 18.99278,
    "name": "wc Mbekweni CDC",
    "province": "Western Cape",
    "short_name": "Mbekweni CDC"
   }
  },
  {
    "model": "clinicfinder.location",
    "fields":{
    "address": "Trudall Street, McGregor",
    "code": 417442,
    "latitude": -33.9476,
    "location": "POINT (19.82933 -33.94762)",
    "longitude": 19.82933,
    "name": "wc McGregor Clinic",
    "province": "Western Cape",
    "short_name": "McGregor Clinic"
   }
  },
  {
    "model": "clinicfinder.location",
    "fields":{
    "address": "Robbon Road, Melkbosstrand",
    "code": 412760,
    "latitude": -33.7166,
    "location": "POINT (18.4485 -33.71661)",
    "longitude": 18.4485,
    "name": "wc Melkbosstrand Clinic",
    "province": "Western Cape",
    "short_name": "Melkbosstrand Clinic"
   }
  },
  {
    "model": "clinicfinder.location",
    "fields":{
    "address": "Church Street, Mfuleni, Blackheath",
    "code": 268106,
    "latitude": -34.0052,
    "location": "POINT (18.68186 -34.00528)",
    "longitude": 18.68186,
    "name": "wc Mfuleni CDC",
    "province": "Western Cape",
    "short_name": "Mfuleni CDC"
   }
  },
  {
    "model": "clinicfinder.location",
    "fields":{
    "address": "Steve Biko Road, Harare, Khayelitsha",
    "code": 142733,
    "latitude": -34.0517,
    "location": "POINT (18.67013 -34.05173)",
    "longitude": 18.67013,
    "name": "wc Michael Mapongwana CDC",
    "province": "Western Cape",
    "short_name": "Michael M CDC"
   }
  },
  {
    "model": "clinicfinder.location",
    "fields":{
    "address": "First Avenue, Beacon Valley, Cape Town, 7785",
    "code": 622751,
    "latitude": -34.0466,
    "location": "POINT (18.62222 -34.04661)",
    "longitude": 18.62222,
    "name": "wc Mitchells Plain CHC",
    "province": "Western Cape",
    "short_name": "M Plain CHC"
   }
  },
  {
    "model": "clinicfinder.location",
    "fields":{
    "address": "Park Street",
    "code": 333806,
    "latitude": -33.7827,
    "location": "POINT (20.1292 -33.78276)",
    "longitude": 20.1292,
    "name": "wc Montagu Clinic",
    "province": "Western Cape",
    "short_name": "Montagu Clinic"
   }
  },
  {
    "model": "clinicfinder.location",
    "fields":{
    "address": "Cnr van Hoof and Loop Street",
    "code": 457942,
    "latitude": -33.1498,
    "location": "POINT (18.66417 -33.14984)",
    "longitude": 18.66417,
    "name": "wc Moorreesburg Clinic",
    "province": "Western Cape",
    "short_name": "Moorreesburg Clinic"
   }
  },
  {
    "model": "clinicfinder.location",
    "fields":{
    "address": "Atlantic Road, Muizenberg",
    "code": 853751,
    "latitude": -34.1069,
    "location": "POINT (18.46956 -34.10691)",
    "longitude": 18.46956,
    "name": "wc Muizenberg Clinic",
    "province": "Western Cape",
    "short_name": "Muizenberg Clinic"
   }
  },
  {
    "model": "clinicfinder.location",
    "fields":{
    "address": "Pienaar Street and Graaff Renet Way",
    "code": 320360,
    "latitude": -31.9625,
    "location": "POINT (23.76917 -31.9625)",
    "longitude": 23.76917,
    "name": "wc Murraysburg Clinic",
    "province": "Western Cape",
    "short_name": "Murraysburg Clinic"
   }
  },
  {
    "model": "clinicfinder.location",
    "fields":{
    "address": "Sagwityi Street",
    "code": 474760,
    "latitude": -34.0095,
    "location": "POINT (18.59078 -34.00951)",
    "longitude": 18.59078,
    "name": "wc Mzamomhle Clinic",
    "province": "Western Cape",
    "short_name": "Mzamomhle Clinic"
   }
  },
  {
    "model": "clinicfinder.location",
    "fields":{
    "address": "H/R Volhan En Wess Street Napier",
    "code": 430815,
    "latitude": -34.4703,
    "location": "POINT (19.89333 -34.47033)",
    "longitude": 19.89333,
    "name": "wc Napier Clinic",
    "province": "Western Cape",
    "short_name": "Napier Clinic"
   }
  },
  {
    "model": "clinicfinder.location",
    "fields":{
    "address": "Chris Hani Drive",
    "code": 434615,
    "latitude": -33.3563,
    "location": "POINT (19.34056 -33.35639)",
    "longitude": 19.34056,
    "name": "wc Nduli Clinic",
    "province": "Western Cape",
    "short_name": "Nduli Clinic"
   }
  },
  {
    "model": "clinicfinder.location",
    "fields":{
    "address": "Police Street",
    "code": 254206,
    "latitude": -32.0888,
    "location": "POINT (23.00528 -32.08889)",
    "longitude": 23.00528,
    "name": "wc Nelspoort Clinic",
    "province": "Western Cape",
    "short_name": "Nelspoort Clinic"
   }
  },
  {
    "model": "clinicfinder.location",
    "fields":{
    "address": null,
    "code": 466360,
    "latitude": -33.9486,
    "location": "POINT (18.56034 -33.94863)",
    "longitude": 18.56034,
    "name": "wc Netreg Clinic",
    "province": "Western Cape",
    "short_name": "Netreg Clinic"
   }
  },
  {
    "model": "clinicfinder.location",
    "fields":{
    "address": "Mimosa Street",
    "code": 707124,
    "latitude": -34.0527,
    "location": "POINT (23.3425 -34.05278)",
    "longitude": 23.3425,
    "name": "wc New Horizon Clinic",
    "province": "Western Cape",
    "short_name": "New Horizon Clinic"
   }
  },
  {
    "model": "clinicfinder.location",
    "fields":{
    "address": "Zero Street",
    "code": 274024,
    "latitude": -32.3758,
    "location": "POINT (22.56722 -32.37583)",
    "longitude": 22.56722,
    "name": "wc Nieuveldpark Clinic",
    "province": "Western Cape",
    "short_name": "Nieuveldpark Clinic"
   }
  },
  {
    "model": "clinicfinder.location",
    "fields":{
    "address": "45",
    "code": 368724,
    "latitude": -33.6877,
    "location": "POINT (18.96333 -33.68778)",
    "longitude": 18.96333,
    "name": "wc Nieuwedrift Clinic",
    "province": "Western Cape",
    "short_name": "Nieuwedrift Clinic"
   }
  },
  {
    "model": "clinicfinder.location",
    "fields":{
    "address": "Burwana Street",
    "code": 658415,
    "latitude": -33.818,
    "location": "POINT (19.89333 -33.81806)",
    "longitude": 19.89333,
    "name": "wc Nkqubela Clinic",
    "province": "Western Cape",
    "short_name": "Nkqubela Clinic"
   }
  },
  {
    "model": "clinicfinder.location",
    "fields":{
    "address": "Solomon Tshuku Street, Khayelitsha Site C, Ikwezi Park, Cape Town, 7784",
    "code": 985724,
    "latitude": -34.0158,
    "location": "POINT (18.64979 -34.01581)",
    "longitude": 18.64979,
    "name": "wc Nolungile Clinic",
    "province": "Western Cape",
    "short_name": "Nolungile Clinic"
   }
  },
  {
    "model": "clinicfinder.location",
    "fields":{
    "address": null,
    "code": 476851,
    "latitude": -33.9248,
    "location": "POINT (18.424045 -33.924877)",
    "longitude": 18.424045,
    "name": "wc Nomzamo CDC",
    "province": "Western Cape",
    "short_name": "Nomzamo CDC"
   }
  },
  {
    "model": "clinicfinder.location",
    "fields":{
    "address": "Northpine Drive, Northpine",
    "code": 728315,
    "latitude": -33.8709,
    "location": "POINT (18.71079 -33.87095)",
    "longitude": 18.71079,
    "name": "wc Northpine Clinic",
    "province": "Western Cape",
    "short_name": "Northpine Clinic"
   }
  },
  {
    "model": "clinicfinder.location",
    "fields":{
    "address": "Terminal Road",
    "code": 628424,
    "latitude": -33.9916,
    "location": "POINT (18.58334 -33.99167)",
    "longitude": 18.58334,
    "name": "wc Nyanga CDC",
    "province": "Western Cape",
    "short_name": "Nyanga CDC"
   }
  },
  {
    "model": "clinicfinder.location",
    "fields":{
    "address": "Sithandallu Avenue",
    "code": 772142,
    "latitude": -33.9916,
    "location": "POINT (18.58334 -33.99167)",
    "longitude": 18.58334,
    "name": "wc Nyanga Clinic",
    "province": "Western Cape",
    "short_name": "Nyanga Clinic"
   }
  },
  {
    "model": "clinicfinder.location",
    "fields":{
    "address": null,
    "code": 821524,
    "latitude": -34.148,
    "location": "POINT (18.35092 -34.14802)",
    "longitude": 18.35092,
    "name": "wc Ocean View CDC",
    "province": "Western Cape",
    "short_name": "Ocean View CDC"
   }
  },
  {
    "model": "clinicfinder.location",
    "fields":{
    "address": "Church Street",
    "code": 747724,
    "latitude": -33.135,
    "location": "POINT (19.48389 -33.135)",
    "longitude": 19.48389,
    "name": "wc Op die Berg Clinic",
    "province": "Western Cape",
    "short_name": "Op die Berg Clinic"
   }
  },
  {
    "model": "clinicfinder.location",
    "fields":{
    "address": "Haarlem Street",
    "code": 641942,
    "latitude": -33.4854,
    "location": "POINT (19.6246 -33.48548)",
    "longitude": 19.6246,
    "name": "wc Orchard Clinic",
    "province": "Western Cape",
    "short_name": "Orchard Clinic"
   }
  },
  {
    "model": "clinicfinder.location",
    "fields":{
    "address": "Regent Street",
    "code": 421242,
    "latitude": -33.5927,
    "location": "POINT (22.20139 -33.59278)",
    "longitude": 22.20139,
    "name": "wc Oudtshoorn Clinic",
    "province": "Western Cape",
    "short_name": "Oudtshoorn Clinic"
   }
  },
  {
    "model": "clinicfinder.location",
    "fields":{
    "address": "Missan Street, Pacaltsdorp",
    "code": 145351,
    "latitude": -34.0161,
    "location": "POINT (22.45944 -34.01611)",
    "longitude": 22.45944,
    "name": "wc Pacaltsdorp Clinic",
    "province": "Western Cape",
    "short_name": "Pacaltsdorp Clinic"
   }
  },
  {
    "model": "clinicfinder.location",
    "fields":{
    "address": "Taurus Street, Parkdene, George",
    "code": 353415,
    "latitude": -33.9919,
    "location": "POINT (22.48639 -33.99194)",
    "longitude": 22.48639,
    "name": "wc Parkdene Clinic",
    "province": "Western Cape",
    "short_name": "Parkdene Clinic"
   }
  },
  {
    "model": "clinicfinder.location",
    "fields":{
    "address": "Cnr Walmer and Parkwood Avenue",
    "code": 523833,
    "latitude": -34.0323,
    "location": "POINT (18.49306 -34.03233)",
    "longitude": 18.49306,
    "name": "wc Parkwood Clinic",
    "province": "Western Cape",
    "short_name": "Parkwood Clinic"
   }
  },
  {
    "model": "clinicfinder.location",
    "fields":{
    "address": "22 Smith Street Parow",
    "code": 128415,
    "latitude": -33.9053,
    "location": "POINT (18.58726 -33.90537)",
    "longitude": 18.58726,
    "name": "wc Parow Clinic",
    "province": "Western Cape",
    "short_name": "Parow Clinic"
   }
  },
  {
    "model": "clinicfinder.location",
    "fields":{
    "address": "Cnr New Derksen Street, Paarl",
    "code": 122842,
    "latitude": -33.7319,
    "location": "POINT (18.96583 -33.73194)",
    "longitude": 18.96583,
    "name": "wc Patriot Plein Clinic",
    "province": "Western Cape",
    "short_name": "Patriot Plein Clinic"
   }
  },
  {
    "model": "clinicfinder.location",
    "fields":{
    "address": "Cnr Babbler Street & Oystercatcher Road, Pelican Park, 7941",
    "code": 730933,
    "latitude": -34.0597,
    "location": "POINT (18.524784 -34.059753)",
    "longitude": 18.524784,
    "name": "wc Pelican Park CDC",
    "province": "Western Cape",
    "short_name": "Pelican Park CDC"
   }
  },
  {
    "model": "clinicfinder.location",
    "fields":{
    "address": "Cnr Lansdowne and Ottery Road",
    "code": 624842,
    "latitude": -34.0001,
    "location": "POINT (18.53937 -34.00013)",
    "longitude": 18.53937,
    "name": "wc Philippi Clinic",
    "province": "Western Cape",
    "short_name": "Philippi Clinic"
   }
  },
  {
    "model": "clinicfinder.location",
    "fields":{
    "address": "Bukanani",
    "code": 252533,
    "latitude": -33.6836,
    "location": "POINT (18.99111 -33.68361)",
    "longitude": 18.99111,
    "name": "wc Phola Park Clinic",
    "province": "Western Cape",
    "short_name": "Phola Park Clinic"
   }
  },
  {
    "model": "clinicfinder.location",
    "fields":{
    "address": "Stock Road, Philippi East",
    "code": 573942,
    "latitude": -34.0097,
    "location": "POINT (18.60716 -34.00979)",
    "longitude": 18.60716,
    "name": "wc Phumlani Clinic",
    "province": "Western Cape",
    "short_name": "Phumlani Clinic"
   }
  },
  {
    "model": "clinicfinder.location",
    "fields":{
    "address": "Calendula Street, Piketberg",
    "code": 166933,
    "latitude": -32.865,
    "location": "POINT (18.69833 -32.865)",
    "longitude": 18.69833,
    "name": "wc Piketberg Clinic",
    "province": "Western Cape",
    "short_name": "Piketberg Clinic"
   }
  },
  {
    "model": "clinicfinder.location",
    "fields":{
    "address": "Marrie Drive",
    "code": 427224,
    "latitude": -34.0552,
    "location": "POINT (23.36722 -34.05528)",
    "longitude": 23.36722,
    "name": "wc Plettenberg Bay Clinic",
    "province": "Western Cape",
    "short_name": "Plettenberg Bay Clinic"
   }
  },
  {
    "model": "clinicfinder.location",
    "fields":{
    "address": "Voortrekker Street, Porterville",
    "code": 868142,
    "latitude": -33.018,
    "location": "POINT (18.99389 -33.01806)",
    "longitude": 18.99389,
    "name": "wc Porterville Clinic",
    "province": "Western Cape",
    "short_name": "Porterville Clinic"
   }
  },
  {
    "model": "clinicfinder.location",
    "fields":{
    "address": "Mark Street",
    "code": 841242,
    "latitude": -33.2119,
    "location": "POINT (22.02361 -33.21194)",
    "longitude": 22.02361,
    "name": "wc Prince Albert Clinic",
    "province": "Western Cape",
    "short_name": "P Albert Clinic"
   }
  },
  {
    "model": "clinicfinder.location",
    "fields":{
    "address": "Voortrekker Street, Prince Alfred Hamlet",
    "code": 339115,
    "latitude": -33.2894,
    "location": "POINT (19.32694 -33.28944)",
    "longitude": 19.32694,
    "name": "wc Prince Alfred Hamlet Clinic",
    "province": "Western Cape",
    "short_name": "P Alfred Hamlet Clinic"
   }
  },
  {
    "model": "clinicfinder.location",
    "fields":{
    "address": null,
    "code": 782551,
    "latitude": -33.5723,
    "location": "POINT (18.49171 -33.57235)",
    "longitude": 18.49171,
    "name": "wc Protea Park Clinic",
    "province": "Western Cape",
    "short_name": "Protea Park Clinic"
   }
  },
  {
    "model": "clinicfinder.location",
    "fields":{
    "address": "Reisiebaan Street",
    "code": 787842,
    "latitude": -34.0346,
    "location": "POINT (20.44505 -34.03467)",
    "longitude": 20.44505,
    "name": "wc Railton Clinic",
    "province": "Western Cape",
    "short_name": "Railton Clinic"
   }
  },
  {
    "model": "clinicfinder.location",
    "fields":{
    "address": "Florida Street, Ravensmead, Cape Town, 7493",
    "code": 628606,
    "latitude": -33.9246,
    "location": "POINT (18.59773 -33.92468)",
    "longitude": 18.59773,
    "name": "wc Ravensmead Clinic",
    "province": "Western Cape",
    "short_name": "Ravensmead Clinic"
   }
  },
  {
    "model": "clinicfinder.location",
    "fields":{
    "address": "Uit Street, Rawsonville",
    "code": 413251,
    "latitude": -33.6905,
    "location": "POINT (19.31833 -33.69056)",
    "longitude": 19.31833,
    "name": "wc Rawsonville Clinic",
    "province": "Western Cape",
    "short_name": "Rawsonville Clinic"
   }
  },
  {
    "model": "clinicfinder.location",
    "fields":{
    "address": "136 11th Avenue",
    "code": 806151,
    "latitude": -34.0577,
    "location": "POINT (18.48041 -34.05772)",
    "longitude": 18.48041,
    "name": "wc Retreat CHC",
    "province": "Western Cape",
    "short_name": "Retreat CHC"
   }
  },
  {
    "model": "clinicfinder.location",
    "fields":{
    "address": "Angelier Street, Riebeek Kasteel",
    "code": 859351,
    "latitude": -33.3838,
    "location": "POINT (18.91972 -33.38389)",
    "longitude": 18.91972,
    "name": "wc Riebeek Kasteel Clinic",
    "province": "Western Cape",
    "short_name": "Riebeek Kasteel Clinic"
   }
  },
  {
    "model": "clinicfinder.location",
    "fields":{
    "address": "Kacheloffer Street",
    "code": 950824,
    "latitude": -33.3525,
    "location": "POINT (18.87472 -33.3525)",
    "longitude": 18.87472,
    "name": "wc Riebeek Wes Clinic",
    "province": "Western Cape",
    "short_name": "Riebeek Wes Clinic"
   }
  },
  {
    "model": "clinicfinder.location",
    "fields":{
    "address": "Hospital Street",
    "code": 513060,
    "latitude": -34.0938,
    "location": "POINT (21.25361 -34.09389)",
    "longitude": 21.25361,
    "name": "wc Riversdale Clinic",
    "province": "Western Cape",
    "short_name": "Riversdale Clinic"
   }
  },
  {
    "model": "clinicfinder.location",
    "fields":{
    "address": "H/V Muller and De Kock Street",
    "code": 334442,
    "latitude": -34.1488,
    "location": "POINT (19.92033 -34.14883)",
    "longitude": 19.92033,
    "name": "wc Riviersonderend Clinic",
    "province": "Western Cape",
    "short_name": "Riviersonderend Clinic"
   }
  },
  {
    "model": "clinicfinder.location",
    "fields":{
    "address": "Cnr Lancester and Park Avenue",
    "code": 745333,
    "latitude": -34.0647,
    "location": "POINT (18.61075 -34.06477)",
    "longitude": 18.61075,
    "name": "wc Rocklands Clinic",
    "province": "Western Cape",
    "short_name": "Rocklands Clinic"
   }
  },
  {
    "model": "clinicfinder.location",
    "fields":{
    "address": "Canary Street, Rosemoore",
    "code": 372251,
    "latitude": -33.9722,
    "location": "POINT (22.47806 -33.97222)",
    "longitude": 22.47806,
    "name": "wc Rosemoor Clinic",
    "province": "Western Cape",
    "short_name": "Rosemoor Clinic"
   }
  },
  {
    "model": "clinicfinder.location",
    "fields":{
    "address": "Vereeniging Circle",
    "code": 716924,
    "latitude": -33.9183,
    "location": "POINT (18.55691 -33.91835)",
    "longitude": 18.55691,
    "name": "wc Ruyterwacht CDC",
    "province": "Western Cape",
    "short_name": "Ruyterwacht CDC"
   }
  },
  {
    "model": "clinicfinder.location",
    "fields":{
    "address": "Da Gama Street",
    "code": 337133,
    "latitude": -33.0072,
    "location": "POINT (17.94417 -33.00722)",
    "longitude": 17.94417,
    "name": "wc Saldanha Clinic",
    "province": "Western Cape",
    "short_name": "Saldanha Clinic"
   }
  },
  {
    "model": "clinicfinder.location",
    "fields":{
    "address": "Waterwieve Sandhills",
    "code": 944333,
    "latitude": -33.5178,
    "location": "POINT (19.55883 -33.51783)",
    "longitude": 19.55883,
    "name": "wc Sandhills Clinic",
    "province": "Western Cape",
    "short_name": "Sandhills Clinic"
   }
  },
  {
    "model": "clinicfinder.location",
    "fields":{
    "address": "Rietvlei Street, Sarepta",
    "code": 281142,
    "latitude": -33.932,
    "location": "POINT (18.67248 -33.93205)",
    "longitude": 18.67248,
    "name": "wc Sarepta Clinic",
    "province": "Western Cape",
    "short_name": "Sarepta Clinic"
   }
  },
  {
    "model": "clinicfinder.location",
    "fields":{
    "address": null,
    "code": 443824,
    "latitude": -33.1872,
    "location": "POINT (19.00611 -33.18722)",
    "longitude": 19.00611,
    "name": "wc Saron Clinic",
    "province": "Western Cape",
    "short_name": "Saron Clinic"
   }
  },
  {
    "model": "clinicfinder.location",
    "fields":{
    "address": null,
    "code": 222560,
    "latitude": -33.5501,
    "location": "POINT (18.48881 -33.55012)",
    "longitude": 18.48881,
    "name": "wc Saxon Sea Clinic",
    "province": "Western Cape",
    "short_name": "Saxon Sea Clinic"
   }
  },
  {
    "model": "clinicfinder.location",
    "fields":{
    "address": "Eoan Avenue, Northpine, Cape Town, 7560",
    "code": 402106,
    "latitude": -33.8661,
    "location": "POINT (18.72222 -33.86611)",
    "longitude": 18.72222,
    "name": "wc Scottsdene Clinic",
    "province": "Western Cape",
    "short_name": "Scottsdene Clinic"
   }
  },
  {
    "model": "clinicfinder.location",
    "fields":{
    "address": null,
    "code": 832506,
    "latitude": -34.075,
    "location": "POINT (18.49025 -34.07502)",
    "longitude": 18.49025,
    "name": "wc Seawind Clinic",
    "province": "Western Cape",
    "short_name": "Seawind Clinic"
   }
  },
  {
    "model": "clinicfinder.location",
    "fields":{
    "address": "Pelican Laan",
    "code": 431651,
    "latitude": -34.0205,
    "location": "POINT (22.80278 -34.02056)",
    "longitude": 22.80278,
    "name": "wc Sedgefield Clinic",
    "province": "Western Cape",
    "short_name": "Sedgefield Clinic"
   }
  },
  {
    "model": "clinicfinder.location",
    "fields":{
    "address": "Petunia Street",
    "code": 345833,
    "latitude": -33.9664,
    "location": "POINT (18.53469 -33.96648)",
    "longitude": 18.53469,
    "name": "wc Silvertown Clinic",
    "province": "Western Cape",
    "short_name": "Silvertown Clinic"
   }
  },
  {
    "model": "clinicfinder.location",
    "fields":{
    "address": "Watergat Pad R45, Simondium",
    "code": 925142,
    "latitude": -33.8386,
    "location": "POINT (18.95639 -33.83861)",
    "longitude": 18.95639,
    "name": "wc Simondium Clinic",
    "province": "Western Cape",
    "short_name": "Simondium Clinic"
   }
  },
  {
    "model": "clinicfinder.location",
    "fields":{
    "address": "Ndan Street",
    "code": 784433,
    "latitude": -34.1205,
    "location": "POINT (18.90741 -34.12059)",
    "longitude": 18.90741,
    "name": "wc Sir Lowry's Pass CDC",
    "province": "Western Cape",
    "short_name": "Sir Lowry's Pass CDC"
   }
  },
  {
    "model": "clinicfinder.location",
    "fields":{
    "address": "Hermon Road, Wellington",
    "code": 625624,
    "latitude": -33.6027,
    "location": "POINT (18.98361 -33.60278)",
    "longitude": 18.98361,
    "name": "wc Soetendal Clinic",
    "province": "Western Cape",
    "short_name": "Soetendal Clinic"
   }
  },
  {
    "model": "clinicfinder.location",
    "fields":{
    "address": null,
    "code": 716751,
    "latitude": -34.0857,
    "location": "POINT (18.84815 -34.08579)",
    "longitude": 18.84815,
    "name": "wc Somerset West CDC",
    "province": "Western Cape",
    "short_name": "Somerset West CDC"
   }
  },
  {
    "model": "clinicfinder.location",
    "fields":{
    "address": "17 Spencer Road, Salt River",
    "code": 750360,
    "latitude": -33.9286,
    "location": "POINT (18.46485 -33.92862)",
    "longitude": 18.46485,
    "name": "wc Spencer Road Clinic",
    "province": "Western Cape",
    "short_name": "Spencer Road Clinic"
   }
  },
  {
    "model": "clinicfinder.location",
    "fields":{
    "address": "Cnr Belhar and St Vincent Drive, Belhar, 7493",
    "code": 461206,
    "latitude": -33.9454,
    "location": "POINT (18.64867 -33.94546)",
    "longitude": 18.64867,
    "name": "wc St Vincent (CCT) CDC",
    "province": "Western Cape",
    "short_name": "St Vincent (CCT) CDC"
   }
  },
  {
    "model": "clinicfinder.location",
    "fields":{
    "address": "Cnr Mathilda and Dreyer Streeet, Stanford",
    "code": 271251,
    "latitude": -34.4458,
    "location": "POINT (19.45817 -34.44581)",
    "longitude": 19.45817,
    "name": "wc Stanford Clinic",
    "province": "Western Cape",
    "short_name": "Stanford Clinic"
   }
  },
  {
    "model": "clinicfinder.location",
    "fields":{
    "address": "Gortland Place, 37 Main Road, Strand, 7140",
    "code": 287242,
    "latitude": -34.1167,
    "location": "POINT (18.83046 -34.11676)",
    "longitude": 18.83046,
    "name": "wc Strand CDC",
    "province": "Western Cape",
    "short_name": "Strand CDC"
   }
  },
  {
    "model": "clinicfinder.location",
    "fields":{
    "address": "Cnr Welgelegen and Walvis Road",
    "code": 243524,
    "latitude": -34.0728,
    "location": "POINT (18.55542 -34.07285)",
    "longitude": 18.55542,
    "name": "wc Strandfontein Clinic",
    "province": "Western Cape",
    "short_name": "Strandfontein Clinic"
   }
  },
  {
    "model": "clinicfinder.location",
    "fields":{
    "address": "Deining Loam",
    "code": 448242,
    "latitude": -34.7828,
    "location": "POINT (20.0335 -34.78283)",
    "longitude": 20.0335,
    "name": "wc Struisbaai Clinic",
    "province": "Western Cape",
    "short_name": "Struisbaai Clinic"
   }
  },
  {
    "model": "clinicfinder.location",
    "fields":{
    "address": "Helmcircle, Suurbraak",
    "code": 873242,
    "latitude": -34.0797,
    "location": "POINT (20.70667 -34.07972)",
    "longitude": 20.70667,
    "name": "wc Suurbraak Clinic",
    "province": "Western Cape",
    "short_name": "Suurbraak Clinic"
   }
  },
  {
    "model": "clinicfinder.location",
    "fields":{
    "address": "18 Drosdy Street, Swellendam, 6740",
    "code": 255551,
    "latitude": -34.0234,
    "location": "POINT (20.4488 -34.02348)",
    "longitude": 20.4488,
    "name": "wc Swellendam PHC Clinic",
    "province": "Western Cape",
    "short_name": "Swellendam PHC Clinic"
   }
  },
  {
    "model": "clinicfinder.location",
    "fields":{
    "address": null,
    "code": 974042,
    "latitude": -33.9645,
    "location": "POINT (18.627164 -33.964512)",
    "longitude": 18.627164,
    "name": "wc Symphony Way CDC",
    "province": "Western Cape",
    "short_name": "Symphony Way CDC"
   }
  },
  {
    "model": "clinicfinder.location",
    "fields":{
    "address": "Cnr Rosary and Broadway School",
    "code": 107533,
    "latitude": -33.723,
    "location": "POINT (18.9875 -33.72306)",
    "longitude": 18.9875,
    "name": "wc TC Newman CDC",
    "province": "Western Cape",
    "short_name": "TC Newman CDC"
   }
  },
  {
    "model": "clinicfinder.location",
    "fields":{
    "address": "South Road",
    "code": 764706,
    "latitude": -33.8329,
    "location": "POINT (18.51359 -33.83291)",
    "longitude": 18.51359,
    "name": "wc Table View Clinic",
    "province": "Western Cape",
    "short_name": "Table View Clinic"
   }
  },
  {
    "model": "clinicfinder.location",
    "fields":{
    "address": null,
    "code": 673751,
    "latitude": -34.0623,
    "location": "POINT (18.63715 -34.06235)",
    "longitude": 18.63715,
    "name": "wc Tafelsig CDC",
    "province": "Western Cape",
    "short_name": "Tafelsig CDC"
   }
  },
  {
    "model": "clinicfinder.location",
    "fields":{
    "address": "Ngcakani Road",
    "code": 759715,
    "latitude": -34.0033,
    "location": "POINT (22.49194 -34.00333)",
    "longitude": 22.49194,
    "name": "wc Thembalethu CDC",
    "province": "Western Cape",
    "short_name": "Thembalethu CDC"
   }
  },
  {
    "model": "clinicfinder.location",
    "fields":{
    "address": "52 Lupins Street",
    "code": 187642,
    "latitude": -33.5955,
    "location": "POINT (22.24139 -33.59556)",
    "longitude": 22.24139,
    "name": "wc Toekomsrus Clinic",
    "province": "Western Cape",
    "short_name": "Toekomsrus Clinic"
   }
  },
  {
    "model": "clinicfinder.location",
    "fields":{
    "address": "Wes Street",
    "code": 642960,
    "latitude": -33.3408,
    "location": "POINT (20.0285 -33.34083)",
    "longitude": 20.0285,
    "name": "wc Touws River Clinic",
    "province": "Western Cape",
    "short_name": "Touws River Clinic"
   }
  },
  {
    "model": "clinicfinder.location",
    "fields":{
    "address": "Bester Street",
    "code": 538642,
    "latitude": -33.9552,
    "location": "POINT (22.62056 -33.95528)",
    "longitude": 22.62056,
    "name": "wc Touwsranten Clinic",
    "province": "Western Cape",
    "short_name": "Touwsranten Clinic"
   }
  },
  {
    "model": "clinicfinder.location",
    "fields":{
    "address": "Cnr Lansdowne and Basil Amos Zondi Street",
    "code": 243942,
    "latitude": -34.0272,
    "location": "POINT (18.66589 -34.02722)",
    "longitude": 18.66589,
    "name": "wc Town 2 CDC",
    "province": "Western Cape",
    "short_name": "Town 2 CDC"
   }
  },
  {
    "model": "clinicfinder.location",
    "fields":{
    "address": "Steinthal Road, Tulbagh, 6800",
    "code": 576751,
    "latitude": -33.2849,
    "location": "POINT (19.14639 -33.28493)",
    "longitude": 19.14639,
    "name": "wc Tulbagh Clinic",
    "province": "Western Cape",
    "short_name": "Tulbagh Clinic"
   }
  },
  {
    "model": "clinicfinder.location",
    "fields":{
    "address": "Hibisens Square, Uitsig",
    "code": 555242,
    "latitude": -33.9357,
    "location": "POINT (18.59841 -33.93571)",
    "longitude": 18.59841,
    "name": "wc Uitsig Clinic",
    "province": "Western Cape",
    "short_name": "Uitsig Clinic"
   }
  },
  {
    "model": "clinicfinder.location",
    "fields":{
    "address": "Lang Street, Uniondale",
    "code": 951624,
    "latitude": -33.6627,
    "location": "POINT (23.11306 -33.66278)",
    "longitude": 23.11306,
    "name": "wc Uniondale (Lyonsville) Clinic",
    "province": "Western Cape",
    "short_name": "Uniondale Clinic"
   }
  },
  {
    "model": "clinicfinder.location",
    "fields":{
    "address": "Cnr Johannes and Angela Street, Valhalla Park",
    "code": 559133,
    "latitude": -33.9534,
    "location": "POINT (18.5705 -33.95346)",
    "longitude": 18.5705,
    "name": "wc Valhalla Park Clinic",
    "province": "Western Cape",
    "short_name": "Valhalla Park Clinic"
   }
  },
  {
    "model": "clinicfinder.location",
    "fields":{
    "address": "Buitekant Street",
    "code": 418233,
    "latitude": -31.6025,
    "location": "POINT (18.75111 -31.6025)",
    "longitude": 18.75111,
    "name": "wc Van Rhynsdorp Clinic",
    "province": "Western Cape",
    "short_name": "v Rhynsdorp Clinic"
   }
  },
  {
    "model": "clinicfinder.location",
    "fields":{
    "address": "Cnr Citrus Road, Candlewood",
    "code": 350206,
    "latitude": -33.9477,
    "location": "POINT (18.543569 -33.947755)",
    "longitude": 18.543569,
    "name": "wc Vanguard CHC",
    "province": "Western Cape",
    "short_name": "Vanguard CHC"
   }
  },
  {
    "model": "clinicfinder.location",
    "fields":{
    "address": "Noordlicek",
    "code": 119333,
    "latitude": -32.7738,
    "location": "POINT (18.16556 -32.77389)",
    "longitude": 18.16556,
    "name": "wc Velddrif Clinic",
    "province": "Western Cape",
    "short_name": "Velddrif Clinic"
   }
  },
  {
    "model": "clinicfinder.location",
    "fields":{
    "address": "1a Protea Street, Villiersdorp",
    "code": 376606,
    "latitude": -33.9929,
    "location": "POINT (19.28579 -33.99294)",
    "longitude": 19.28579,
    "name": "wc Villiersdorp Clinic",
    "province": "Western Cape",
    "short_name": "Villiersdorp Clinic"
   }
  },
  {
    "model": "clinicfinder.location",
    "fields":{
    "address": "Waterkant Street, Vredenburg",
    "code": 892633,
    "latitude": -32.9072,
    "location": "POINT (17.99246 -32.90724)",
    "longitude": 17.99246,
    "name": "wc Vredenburg Clinic",
    "province": "Western Cape",
    "short_name": "Vredenburg Clinic"
   }
  },
  {
    "model": "clinicfinder.location",
    "fields":{
    "address": "Skool Street, Vredendal",
    "code": 831833,
    "latitude": -31.6641,
    "location": "POINT (18.50389 -31.66417)",
    "longitude": 18.50389,
    "name": "wc Vredendal Central Clinic",
    "province": "Western Cape",
    "short_name": "Vredendal Central Clinic"
   }
  },
  {
    "model": "clinicfinder.location",
    "fields":{
    "address": "Hoerskool Road, Vredendal North",
    "code": 664251,
    "latitude": -31.6516,
    "location": "POINT (18.52278 -31.65167)",
    "longitude": 18.52278,
    "name": "wc Vredendal North Clinic",
    "province": "Western Cape",
    "short_name": "Vredendal North Clinic"
   }
  },
  {
    "model": "clinicfinder.location",
    "fields":{
    "address": null,
    "code": 605333,
    "latitude": -33.9731,
    "location": "POINT (18.56937 -33.97312)",
    "longitude": 18.56937,
    "name": "wc Vuyani Clinic",
    "province": "Western Cape",
    "short_name": "Vuyani Clinic"
   }
  },
  {
    "model": "clinicfinder.location",
    "fields":{
    "address": "La Boheme Way, Wallacedene, Kraaifontein",
    "code": 732606,
    "latitude": -33.8597,
    "location": "POINT (18.73325 -33.85972)",
    "longitude": 18.733249999999998,
    "name": "wc Wallacedene Clinic",
    "province": "Western Cape",
    "short_name": "Wallacedene Clinic"
   }
  },
  {
    "model": "clinicfinder.location",
    "fields":{
    "address": "Van Wykvlei, Wellington",
    "code": 562424,
    "latitude": -33.6391,
    "location": "POINT (19.00472 -33.63917)",
    "longitude": 19.00472,
    "name": "wc Wellington CDC",
    "province": "Western Cape",
    "short_name": "Wellington CDC"
   }
  },
  {
    "model": "clinicfinder.location",
    "fields":{
    "address": "Cnr Oliver Tambo and Leanord Radu Samora Machel",
    "code": 384351,
    "latitude": -34.0169,
    "location": "POINT (18.58385 -34.01692)",
    "longitude": 18.583849999999998,
    "name": "wc Weltevreden Valley Clinic",
    "province": "Western Cape",
    "short_name": "Weltevreden Valley Clinic"
   }
  },
  {
    "model": "clinicfinder.location",
    "fields":{
    "address": null,
    "code": 237824,
    "latitude": -33.9711,
    "location": "POINT (18.66197 -33.97119)",
    "longitude": 18.66197,
    "name": "wc Wesbank Clinic",
    "province": "Western Cape",
    "short_name": "Wesbank Clinic"
   }
  },
  {
    "model": "clinicfinder.location",
    "fields":{
    "address": "44 Westlake Drive",
    "code": 512251,
    "latitude": -34.0809,
    "location": "POINT (18.43654 -34.08094)",
    "longitude": 18.43654,
    "name": "wc Westlake Clinic",
    "province": "Western Cape",
    "short_name": "Westlake Clinic"
   }
  },
  {
    "model": "clinicfinder.location",
    "fields":{
    "address": "Cnr Wesport and Deduin Avenue, Westridge",
    "code": 292360,
    "latitude": -34.0515,
    "location": "POINT (18.60342 -34.05158)",
    "longitude": 18.60342,
    "name": "wc Westridge Clinic",
    "province": "Western Cape",
    "short_name": "Westridge Clinic"
   }
  },
  {
    "model": "clinicfinder.location",
    "fields":{
    "address": "Vrygans Road",
    "code": 447542,
    "latitude": -33.6708,
    "location": "POINT (18.90556 -33.67083)",
    "longitude": 18.90556,
    "name": "wc Windmeul Clinic",
    "province": "Western Cape",
    "short_name": "Windmeul Clinic"
   }
  },
  {
    "model": "clinicfinder.location",
    "fields":{
    "address": "Church Street, Wolseley",
    "code": 758715,
    "latitude": -33.4219,
    "location": "POINT (19.2025 -33.42194)",
    "longitude": 19.2025,
    "name": "wc Wolseley Clinic",
    "province": "Western Cape",
    "short_name": "Wolseley Clinic"
   }
  },
  {
    "model": "clinicfinder.location",
    "fields":{
    "address": "Sugget Street",
    "code": 883615,
    "latitude": -33.6449,
    "location": "POINT (19.46008 -33.64495)",
    "longitude": 19.46008,
    "name": "wc Worcester CDC",
    "province": "Western Cape",
    "short_name": "Worcester CDC"
   }
  },
  {
    "model": "clinicfinder.location",
    "fields":{
    "address": null,
    "code": 636433,
    "latitude": -32.2744,
    "location": "POINT (19.21861 -32.27444)",
    "longitude": 19.21861,
    "name": "wc Wupperthal Clinic",
    "province": "Western Cape",
    "short_name": "Wupperthal Clinic"
   }
  },
  {
    "model": "clinicfinder.location",
    "fields":{
    "address": null,
    "code": 352533,
    "latitude": -34.0046,
    "location": "POINT (18.47006 -34.00465)",
    "longitude": 18.47006,
    "name": "wc Wynberg Clinic",
    "province": "Western Cape",
    "short_name": "Wynberg Clinic"
   }
  },
  {
    "model": "clinicfinder.location",
    "fields":{
    "address": "A544 Zakhele Street",
    "code": 980215,
    "latitude": -34.0413,
    "location": "POINT (18.65932 -34.04134)",
    "longitude": 18.65932,
    "name": "wc Zakhele Clinic",
    "province": "Western Cape",
    "short_name": "Zakhele Clinic"
   }
  },
  {
    "model": "clinicfinder.location",
    "fields":{
    "address": "Die Street, Zoar",
    "code": 275851,
    "latitude": -33.4866,
    "location": "POINT (21.465 -33.48667)",
    "longitude": 21.465,
    "name": "wc Zoar Clinic",
    "province": "Western Cape",
    "short_name": "Zoar Clinic"
   }
  },
  {
    "model": "clinicfinder.location",
    "fields": {
      "address": "Building Street",
      "code": 837351,
      "latitude": -33.8375,
      "location": "POINT (20.08633 -33.8375)",
      "longitude": 20.08633,
      "name": "wc Zolani Clinic",
      "province": "Western Cape",
      "short_name": "Zolani Clinic"
    }
  }
]